STK_Power_Sim/STK_Power_Sim/Report/Lighting_Interval-Max_Beta.csv

"Start Time (UTCG)","Stop Time (UTCG)","Duration (sec)"
20 Jun 2020 00:00:00.000,20 Jun 2020 00:59:07.577,3547.577
20 Jun 2020 01:23:07.779,20 Jun 2020 02:31:50.805,4123.026
20 Jun 2020 02:55:36.379,20 Jun 2020 04:04:34.312,4137.933
20 Jun 2020 04:28:04.882,20 Jun 2020 05:37:18.111,4153.229
20 Jun 2020 06:00:33.284,20 Jun 2020 07:10:02.213,4168.928
20 Jun 2020 07:33:01.579,20 Jun 2020 08:42:46.626,4185.047
20 Jun 2020 09:05:29.761,20 Jun 2020 10:15:31.365,4201.604
20 Jun 2020 10:37:57.824,20 Jun 2020 11:48:16.441,4218.618
20 Jun 2020 12:10:25.759,20 Jun 2020 13:21:01.868,4236.109
20 Jun 2020 13:42:53.561,20 Jun 2020 14:53:47.661,4254.100
20 Jun 2020 15:15:21.220,20 Jun 2020 16:26:33.835,4272.615
20 Jun 2020 16:47:48.727,20 Jun 2020 17:59:20.407,4291.680
20 Jun 2020 18:20:16.075,20 Jun 2020 19:32:07.397,4311.322
20 Jun 2020 19:52:43.247,20 Jun 2020 21:04:54.819,4331.572
20 Jun 2020 21:25:10.231,20 Jun 2020 22:37:42.697,4352.466
20 Jun 2020 22:57:37.014,21 Jun 2020 00:10:31.051,4374.037
21 Jun 2020 00:30:03.589,21 Jun 2020 01:43:19.912,4396.323
21 Jun 2020 02:02:29.927,21 Jun 2020 03:16:09.298,4419.371
21 Jun 2020 03:34:56.014,21 Jun 2020 03:57:45.680,1369.666
21 Jun 2020 04:06:40.752,21 Jun 2020 04:48:59.247,2538.495
21 Jun 2020 05:07:21.827,21 Jun 2020 05:25:48.123,1106.296
21 Jun 2020 05:39:30.917,21 Jun 2020 06:21:49.788,2538.871
21 Jun 2020 06:39:47.342,21 Jun 2020 07:50:21.471,4234.129
21 Jun 2020 08:12:12.531,21 Jun 2020 09:24:17.753,4325.223
21 Jun 2020 09:44:37.355,21 Jun 2020 11:00:25.361,4548.006
21 Jun 2020 11:17:01.787,21 Jun 2020 12:33:18.690,4576.902
21 Jun 2020 12:49:25.779,21 Jun 2020 14:06:12.849,4607.070
21 Jun 2020 14:21:49.277,21 Jun 2020 15:39:07.915,4638.638
21 Jun 2020 15:54:12.221,21 Jun 2020 17:12:03.964,4671.744
21 Jun 2020 17:26:34.535,21 Jun 2020 18:45:01.107,4706.572
21 Jun 2020 18:58:56.130,21 Jun 2020 20:17:59.463,4743.333
21 Jun 2020 20:31:16.890,21 Jun 2020 21:50:59.188,4782.298
21 Jun 2020 22:03:36.669,21 Jun 2020 23:24:00.482,4823.813
21 Jun 2020 23:35:55.281,22 Jun 2020 00:57:03.606,4868.325
22 Jun 2020 01:08:12.475,22 Jun 2020 02:30:08.924,4916.449
22 Jun 2020 02:40:27.900,22 Jun 2020 04:03:16.951,4969.051
22 Jun 2020 04:12:41.045,22 Jun 2020 05:36:28.509,5027.465
22 Jun 2020 05:44:51.110,22 Jun 2020 07:09:44.997,5093.887
22 Jun 2020 07:16:56.713,22 Jun 2020 08:43:09.260,5172.547
22 Jun 2020 08:48:55.002,22 Jun 2020 10:16:49.510,5274.507
22 Jun 2020 10:20:37.798,27 Jun 2020 12:28:20.493,439662.696
27 Jun 2020 12:30:33.621,27 Jun 2020 13:59:42.461,5348.839
27 Jun 2020 14:04:34.973,27 Jun 2020 15:31:34.656,5219.683
27 Jun 2020 15:38:05.602,27 Jun 2020 17:03:37.036,5131.434
27 Jun 2020 17:11:25.561,27 Jun 2020 18:35:45.045,5059.484
27 Jun 2020 18:44:39.423,27 Jun 2020 20:07:56.736,4997.314
27 Jun 2020 20:17:49.151,27 Jun 2020 21:40:11.066,4941.915
27 Jun 2020 21:50:55.793,27 Jun 2020 23:12:27.399,4891.606
27 Jun 2020 23:24:00.005,28 Jun 2020 00:00:00.000,2159.995

"Start Time (UTCG)","Stop Time (UTCG)","Duration (sec)"
20 Jun 2020 00:59:07.577,20 Jun 2020 00:59:28.700,21.123
20 Jun 2020 01:22:46.309,20 Jun 2020 01:23:07.779,21.471
20 Jun 2020 02:31:50.805,20 Jun 2020 02:32:12.290,21.484
20 Jun 2020 02:55:14.537,20 Jun 2020 02:55:36.379,21.842
20 Jun 2020 04:04:34.312,20 Jun 2020 04:04:56.176,21.864
20 Jun 2020 04:27:42.652,20 Jun 2020 04:28:04.882,22.230
20 Jun 2020 05:37:18.111,20 Jun 2020 05:37:40.370,22.259
20 Jun 2020 06:00:10.648,20 Jun 2020 06:00:33.284,22.636
20 Jun 2020 07:10:02.213,20 Jun 2020 07:10:24.884,22.671
20 Jun 2020 07:32:38.519,20 Jun 2020 07:33:01.579,23.060
20 Jun 2020 08:42:46.626,20 Jun 2020 08:43:09.730,23.104
20 Jun 2020 09:05:06.257,20 Jun 2020 09:05:29.761,23.504
20 Jun 2020 10:15:31.365,20 Jun 2020 10:15:54.923,23.558
20 Jun 2020 10:37:33.853,20 Jun 2020 10:37:57.824,23.970
20 Jun 2020 11:48:16.441,20 Jun 2020 11:48:40.476,24.035
20 Jun 2020 12:10:01.303,20 Jun 2020 12:10:25.759,24.457
20 Jun 2020 13:21:01.868,20 Jun 2020 13:21:26.406,24.537
20 Jun 2020 13:42:28.588,20 Jun 2020 13:42:53.561,24.973
20 Jun 2020 14:53:47.661,20 Jun 2020 14:54:12.728,25.067
20 Jun 2020 15:14:55.704,20 Jun 2020 15:15:21.220,25.516
20 Jun 2020 16:26:33.835,20 Jun 2020 16:26:59.465,25.629
20 Jun 2020 16:47:22.640,20 Jun 2020 16:47:48.727,26.087
20 Jun 2020 17:59:20.407,20 Jun 2020 17:59:46.629,26.222
20 Jun 2020 18:19:49.378,20 Jun 2020 18:20:16.075,26.698
20 Jun 2020 19:32:07.397,20 Jun 2020 19:32:34.245,26.848
20 Jun 2020 19:52:15.905,20 Jun 2020 19:52:43.247,27.341
20 Jun 2020 21:04:54.819,20 Jun 2020 21:05:22.336,27.517
20 Jun 2020 21:24:42.207,20 Jun 2020 21:25:10.231,28.024
20 Jun 2020 22:37:42.697,20 Jun 2020 22:38:10.926,28.229
20 Jun 2020 22:57:08.260,20 Jun 2020 22:57:37.014,28.754
21 Jun 2020 00:10:31.051,21 Jun 2020 00:11:00.044,28.994
21 Jun 2020 00:29:34.053,21 Jun 2020 00:30:03.589,29.536
21 Jun 2020 01:43:19.912,21 Jun 2020 01:43:49.720,29.808
21 Jun 2020 02:01:59.558,21 Jun 2020 02:02:29.927,30.369
21 Jun 2020 03:16:09.298,21 Jun 2020 03:16:39.985,30.686
21 Jun 2020 03:34:24.749,21 Jun 2020 03:34:56.014,31.265
21 Jun 2020 03:57:45.680,21 Jun 2020 04:06:40.752,535.072
21 Jun 2020 04:48:59.247,21 Jun 2020 04:49:30.882,31.635
21 Jun 2020 05:06:49.597,21 Jun 2020 05:07:21.827,32.230
21 Jun 2020 05:25:48.123,21 Jun 2020 05:39:30.917,822.794
21 Jun 2020 06:21:49.788,21 Jun 2020 06:22:22.451,32.663
21 Jun 2020 06:39:14.066,21 Jun 2020 06:39:47.342,33.276
21 Jun 2020 07:50:21.471,21 Jun 2020 07:54:40.959,259.487
21 Jun 2020 07:54:40.959,21 Jun 2020 07:55:14.744,33.785
21 Jun 2020 08:11:38.117,21 Jun 2020 08:12:12.531,34.414
21 Jun 2020 09:24:17.753,21 Jun 2020 09:27:32.800,195.046
21 Jun 2020 09:27:32.800,21 Jun 2020 09:28:07.810,35.010
21 Jun 2020 09:44:01.703,21 Jun 2020 09:44:37.355,35.652
21 Jun 2020 11:00:25.361,21 Jun 2020 11:01:01.717,36.357
21 Jun 2020 11:16:24.768,21 Jun 2020 11:17:01.787,37.020
21 Jun 2020 12:33:18.690,21 Jun 2020 12:33:56.537,37.848
21 Jun 2020 12:48:47.246,21 Jun 2020 12:49:25.779,38.533
21 Jun 2020 14:06:12.849,21 Jun 2020 14:06:52.366,39.517
21 Jun 2020 14:21:09.057,21 Jun 2020 14:21:49.277,40.220
21 Jun 2020 15:39:07.915,21 Jun 2020 15:39:49.308,41.393
21 Jun 2020 15:53:30.102,21 Jun 2020 15:54:12.221,42.119
21 Jun 2020 17:12:03.964,21 Jun 2020 17:12:47.497,43.533
21 Jun 2020 17:25:50.259,21 Jun 2020 17:26:34.535,44.276
21 Jun 2020 18:45:01.107,21 Jun 2020 18:45:47.101,45.994
21 Jun 2020 18:58:09.369,21 Jun 2020 18:58:56.130,46.761
21 Jun 2020 20:17:59.463,21 Jun 2020 20:18:48.336,48.873
21 Jun 2020 20:30:27.232,21 Jun 2020 20:31:16.890,49.658
21 Jun 2020 21:50:59.188,21 Jun 2020 21:51:51.491,52.303
21 Jun 2020 22:02:43.559,21 Jun 2020 22:03:36.669,53.110
21 Jun 2020 23:24:00.482,21 Jun 2020 23:24:56.976,56.494
21 Jun 2020 23:34:57.958,21 Jun 2020 23:35:55.281,57.323
22 Jun 2020 00:57:03.606,22 Jun 2020 00:58:05.377,61.771
22 Jun 2020 01:07:09.849,22 Jun 2020 01:08:12.475,62.625
22 Jun 2020 02:30:08.924,22 Jun 2020 02:31:17.659,68.735
22 Jun 2020 02:39:18.288,22 Jun 2020 02:40:27.900,69.612
22 Jun 2020 04:03:16.951,22 Jun 2020 04:04:35.538,78.587
22 Jun 2020 04:11:21.566,22 Jun 2020 04:12:41.045,79.478
22 Jun 2020 05:36:28.509,22 Jun 2020 05:38:02.795,94.285
22 Jun 2020 05:43:15.909,22 Jun 2020 05:44:51.110,95.201
22 Jun 2020 07:09:44.997,22 Jun 2020 07:11:52.966,127.969
22 Jun 2020 07:14:47.799,22 Jun 2020 07:16:56.713,128.914
22 Jun 2020 08:43:09.260,22 Jun 2020 08:48:55.002,345.742
22 Jun 2020 10:16:49.510,22 Jun 2020 10:20:37.798,228.288
27 Jun 2020 12:28:20.493,27 Jun 2020 12:30:33.621,133.128
27 Jun 2020 13:59:42.461,27 Jun 2020 14:04:34.973,292.512
27 Jun 2020 15:31:34.656,27 Jun 2020 15:38:05.602,390.946
27 Jun 2020 17:03:37.036,27 Jun 2020 17:05:25.055,108.019
27 Jun 2020 17:09:38.473,27 Jun 2020 17:11:25.561,107.088
27 Jun 2020 18:35:45.045,27 Jun 2020 18:37:11.369,86.323
27 Jun 2020 18:43:14.013,27 Jun 2020 18:44:39.423,85.410
27 Jun 2020 20:07:56.736,27 Jun 2020 20:09:10.829,74.092
27 Jun 2020 20:16:35.948,27 Jun 2020 20:17:49.151,73.203
27 Jun 2020 21:40:11.066,27 Jun 2020 21:41:16.932,65.865
27 Jun 2020 21:49:50.797,27 Jun 2020 21:50:55.793,64.996
27 Jun 2020 23:12:27.399,27 Jun 2020 23:13:27.208,59.809
27 Jun 2020 23:23:01.041,27 Jun 2020 23:24:00.005,58.964

"Start Time (UTCG)","Stop Time (UTCG)","Duration (sec)"
20 Jun 2020 00:59:28.700,20 Jun 2020 01:22:46.309,1397.609
20 Jun 2020 02:32:12.290,20 Jun 2020 02:55:14.537,1382.247
20 Jun 2020 04:04:56.176,20 Jun 2020 04:27:42.652,1366.476
20 Jun 2020 05:37:40.370,20 Jun 2020 06:00:10.648,1350.278
20 Jun 2020 07:10:24.884,20 Jun 2020 07:32:38.519,1333.635
20 Jun 2020 08:43:09.730,20 Jun 2020 09:05:06.257,1316.527
20 Jun 2020 10:15:54.923,20 Jun 2020 10:37:33.853,1298.930
20 Jun 2020 11:48:40.476,20 Jun 2020 12:10:01.303,1280.827
20 Jun 2020 13:21:26.406,20 Jun 2020 13:42:28.588,1262.182
20 Jun 2020 14:54:12.728,20 Jun 2020 15:14:55.704,1242.975
20 Jun 2020 16:26:59.465,20 Jun 2020 16:47:22.640,1223.175
20 Jun 2020 17:59:46.629,20 Jun 2020 18:19:49.378,1202.749
20 Jun 2020 19:32:34.245,20 Jun 2020 19:52:15.905,1181.660
20 Jun 2020 21:05:22.336,20 Jun 2020 21:24:42.207,1159.872
20 Jun 2020 22:38:10.926,20 Jun 2020 22:57:08.260,1137.333
21 Jun 2020 00:11:00.044,21 Jun 2020 00:29:34.053,1114.008
21 Jun 2020 01:43:49.720,21 Jun 2020 02:01:59.558,1089.838
21 Jun 2020 03:16:39.985,21 Jun 2020 03:34:24.749,1064.765
21 Jun 2020 04:49:30.882,21 Jun 2020 05:06:49.597,1038.715
21 Jun 2020 06:22:22.451,21 Jun 2020 06:39:14.066,1011.615
21 Jun 2020 07:55:14.744,21 Jun 2020 08:11:38.117,983.373
21 Jun 2020 09:28:07.810,21 Jun 2020 09:44:01.703,953.892
21 Jun 2020 11:01:01.717,21 Jun 2020 11:16:24.768,923.050
21 Jun 2020 12:33:56.537,21 Jun 2020 12:48:47.246,890.708
21 Jun 2020 14:06:52.366,21 Jun 2020 14:21:09.057,856.691
21 Jun 2020 15:39:49.308,21 Jun 2020 15:53:30.102,820.794
21 Jun 2020 17:12:47.497,21 Jun 2020 17:25:50.259,782.762
21 Jun 2020 18:45:47.101,21 Jun 2020 18:58:09.369,742.268
21 Jun 2020 20:18:48.336,21 Jun 2020 20:30:27.232,698.896
21 Jun 2020 21:51:51.491,21 Jun 2020 22:02:43.559,652.068
21 Jun 2020 23:24:56.976,21 Jun 2020 23:34:57.958,600.983
22 Jun 2020 00:58:05.377,22 Jun 2020 01:07:09.849,544.472
22 Jun 2020 02:31:17.659,22 Jun 2020 02:39:18.288,480.630
22 Jun 2020 04:04:35.538,22 Jun 2020 04:11:21.566,406.028
22 Jun 2020 05:38:02.795,22 Jun 2020 05:43:15.909,313.114
22 Jun 2020 07:11:52.966,22 Jun 2020 07:14:47.799,174.833
27 Jun 2020 17:05:25.055,27 Jun 2020 17:09:38.473,253.418
27 Jun 2020 18:37:11.369,27 Jun 2020 18:43:14.013,362.644
27 Jun 2020 20:09:10.829,27 Jun 2020 20:16:35.948,445.119
27 Jun 2020 21:41:16.932,27 Jun 2020 21:49:50.797,513.865
27 Jun 2020 23:13:27.208,27 Jun 2020 23:23:01.041,573.833

