STK_Power_Sim/STK_Power_Sim/Report/Selfie-Sat-To-Facility-PetrieRoof_Access.csv

Access,Start Time (UTCG),Stop Time (UTCG),Duration (sec),,
1,6 Aug 2019 16:23:39.694,6 Aug 2019 16:34:18.931,639.238,,Average access time
2,6 Aug 2019 18:00:10.258,6 Aug 2019 18:10:11.706,601.448,,570.165677327935
3,7 Aug 2019 09:05:25.177,7 Aug 2019 09:12:14.902,409.725,,
4,7 Aug 2019 10:39:12.044,7 Aug 2019 10:49:45.302,633.258,,
5,7 Aug 2019 12:15:42.303,7 Aug 2019 12:26:09.521,627.218,,
6,7 Aug 2019 13:52:58.749,7 Aug 2019 14:02:56.912,598.164,,
7,7 Aug 2019 15:29:45.487,7 Aug 2019 15:40:13.367,627.88,,
8,7 Aug 2019 17:06:09.790,7 Aug 2019 17:16:42.094,632.305,,
9,7 Aug 2019 18:43:43.134,7 Aug 2019 18:50:24.411,401.276,,
10,8 Aug 2019 08:14:39.015,8 Aug 2019 08:16:01.558,82.543,,
11,8 Aug 2019 09:45:41.525,8 Aug 2019 09:55:45.275,603.751,,
12,8 Aug 2019 11:21:36.455,8 Aug 2019 11:32:15.178,638.723,,
13,8 Aug 2019 12:58:48.948,8 Aug 2019 13:08:50.551,601.604,,
14,8 Aug 2019 14:35:48.687,8 Aug 2019 14:46:03.065,614.378,,
15,8 Aug 2019 16:12:14.418,8 Aug 2019 16:22:57.556,643.138,,
16,8 Aug 2019 17:49:06.360,8 Aug 2019 17:57:52.486,526.126,,
17,9 Aug 2019 08:52:30.554,9 Aug 2019 09:01:35.656,545.102,,
18,9 Aug 2019 10:27:38.290,9 Aug 2019 10:38:21.812,643.521,,
19,9 Aug 2019 12:04:37.253,9 Aug 2019 12:14:48.704,611.45,,
20,9 Aug 2019 13:41:47.946,9 Aug 2019 13:51:51.197,603.251,,
21,9 Aug 2019 15:18:20.991,9 Aug 2019 15:29:01.534,640.542,,
22,9 Aug 2019 16:54:53.404,9 Aug 2019 17:04:47.033,593.63,,
23,10 Aug 2019 07:59:48.950,10 Aug 2019 08:07:06.518,437.568,,
24,10 Aug 2019 09:33:50.869,10 Aug 2019 09:44:27.170,636.301,,
25,10 Aug 2019 11:10:26.388,10 Aug 2019 11:20:51.047,624.659,,
26,10 Aug 2019 12:47:42.715,10 Aug 2019 12:57:40.669,597.954,,
27,10 Aug 2019 14:24:27.150,10 Aug 2019 14:34:57.106,629.956,,
28,10 Aug 2019 16:00:51.731,10 Aug 2019 16:11:20.457,628.726,,
29,10 Aug 2019 17:38:36.236,10 Aug 2019 17:44:46.045,369.808,,
30,11 Aug 2019 07:08:17.845,11 Aug 2019 07:11:36.572,198.727,,
31,11 Aug 2019 08:40:17.492,11 Aug 2019 08:50:28.368,610.876,,
32,11 Aug 2019 10:16:19.502,11 Aug 2019 10:26:56.420,636.918,,
33,11 Aug 2019 11:53:33.476,11 Aug 2019 12:03:33.597,600.121,,
34,11 Aug 2019 13:30:30.978,11 Aug 2019 13:40:47.383,616.404,,
35,11 Aug 2019 15:06:55.833,11 Aug 2019 15:17:38.242,642.409,,
36,11 Aug 2019 16:43:52.629,11 Aug 2019 16:52:22.755,510.126,,
37,12 Aug 2019 07:47:02.620,12 Aug 2019 07:56:21.022,558.402,,
38,12 Aug 2019 09:22:19.757,12 Aug 2019 09:33:03.119,643.362,,
39,12 Aug 2019 10:59:21.924,12 Aug 2019 11:09:31.005,609.081,,
40,12 Aug 2019 12:36:31.043,12 Aug 2019 12:46:35.560,604.518,,
41,12 Aug 2019 14:13:02.343,12 Aug 2019 14:23:43.986,641.643,,
42,12 Aug 2019 15:49:36.938,12 Aug 2019 15:59:21.858,584.92,,
43,13 Aug 2019 06:54:14.642,13 Aug 2019 07:01:56.667,462.025,,
44,13 Aug 2019 08:28:30.231,13 Aug 2019 08:39:08.974,638.742,,
45,13 Aug 2019 10:05:10.673,13 Aug 2019 10:15:32.747,622.073,,
46,13 Aug 2019 11:42:26.620,13 Aug 2019 11:52:24.627,598.007,,
47,13 Aug 2019 13:19:08.799,13 Aug 2019 13:29:40.780,631.981,,
48,13 Aug 2019 14:55:33.910,13 Aug 2019 15:05:58.456,624.546,,
49,13 Aug 2019 16:33:31.825,13 Aug 2019 16:39:05.091,333.266,,
50,14 Aug 2019 06:02:21.824,14 Aug 2019 06:06:46.881,265.056,,
51,14 Aug 2019 07:34:54.140,14 Aug 2019 07:45:11.243,617.103,,
52,14 Aug 2019 09:11:02.846,14 Aug 2019 09:21:37.780,634.934,,
53,14 Aug 2019 10:48:17.999,14 Aug 2019 10:58:16.875,598.876,,
54,14 Aug 2019 12:25:13.212,14 Aug 2019 12:35:31.740,618.528,,
55,14 Aug 2019 14:01:37.382,14 Aug 2019 14:12:18.657,641.275,,
56,14 Aug 2019 15:38:39.704,14 Aug 2019 15:46:52.100,492.396,,
57,15 Aug 2019 06:41:35.618,15 Aug 2019 06:51:05.909,570.291,,
58,15 Aug 2019 08:17:01.629,15 Aug 2019 08:27:44.462,642.833,,
59,15 Aug 2019 09:54:06.667,15 Aug 2019 10:04:13.525,606.858,,
60,15 Aug 2019 11:31:14.051,15 Aug 2019 11:41:20.052,606.001,,
61,15 Aug 2019 13:07:43.749,15 Aug 2019 13:18:26.253,642.504,,
62,15 Aug 2019 14:44:20.905,15 Aug 2019 14:53:56.115,575.21,,
63,16 Aug 2019 05:48:41.961,16 Aug 2019 05:56:45.630,483.668,,
64,16 Aug 2019 07:23:10.099,16 Aug 2019 07:33:50.719,640.62,,
65,16 Aug 2019 08:59:55.131,16 Aug 2019 09:10:14.627,619.496,,
66,16 Aug 2019 10:37:10.438,16 Aug 2019 10:47:08.780,598.342,,
67,16 Aug 2019 12:13:50.436,16 Aug 2019 12:24:24.376,633.94,,
68,16 Aug 2019 13:50:16.340,16 Aug 2019 14:00:36.053,619.713,,
69,16 Aug 2019 15:28:30.928,16 Aug 2019 15:33:20.511,289.584,,
70,17 Aug 2019 04:56:34.249,17 Aug 2019 05:01:49.141,314.892,,
71,17 Aug 2019 06:29:31.420,17 Aug 2019 06:39:53.926,622.505,,
72,17 Aug 2019 08:05:46.461,17 Aug 2019 08:16:19.258,632.797,,
73,17 Aug 2019 09:43:02.469,17 Aug 2019 09:53:00.379,597.91,,
74,17 Aug 2019 11:19:55.372,17 Aug 2019 11:30:16.107,620.735,,
75,17 Aug 2019 12:56:19.071,17 Aug 2019 13:06:58.779,639.708,,
76,17 Aug 2019 14:33:27.725,17 Aug 2019 14:41:20.371,472.646,,
77,18 Aug 2019 05:36:09.469,18 Aug 2019 05:45:50.369,580.899,,
78,18 Aug 2019 07:11:43.862,18 Aug 2019 07:22:25.855,641.993,,
79,18 Aug 2019 08:48:51.444,18 Aug 2019 08:58:56.270,604.826,,
80,18 Aug 2019 10:25:56.948,18 Aug 2019 10:36:04.647,607.698,,
81,18 Aug 2019 12:02:25.202,18 Aug 2019 12:13:08.316,643.115,,
82,18 Aug 2019 13:39:05.335,18 Aug 2019 13:48:29.751,564.416,,
83,19 Aug 2019 04:43:10.680,19 Aug 2019 04:51:33.578,502.898,,
84,19 Aug 2019 06:17:50.428,19 Aug 2019 06:28:32.418,641.99,,
85,19 Aug 2019 07:54:39.716,19 Aug 2019 08:04:56.693,616.977,,
86,19 Aug 2019 09:31:54.140,19 Aug 2019 09:41:53.112,598.972,,
87,19 Aug 2019 11:08:32.041,19 Aug 2019 11:19:07.851,635.811,,
88,19 Aug 2019 12:44:59.042,19 Aug 2019 12:55:13.203,614.161,,
89,19 Aug 2019 14:23:35.615,19 Aug 2019 14:27:30.226,234.611,,
90,20 Aug 2019 03:50:51.561,20 Aug 2019 03:56:46.896,355.335,,
91,20 Aug 2019 05:24:09.281,20 Aug 2019 05:34:36.425,627.144,,
92,20 Aug 2019 07:00:30.308,20 Aug 2019 07:11:00.859,630.551,,
93,20 Aug 2019 08:37:46.863,20 Aug 2019 08:47:44.101,597.238,,
94,20 Aug 2019 10:14:37.444,20 Aug 2019 10:25:00.455,623.011,,
95,20 Aug 2019 11:51:00.901,20 Aug 2019 12:01:38.569,637.668,,
96,20 Aug 2019 13:28:16.850,20 Aug 2019 13:35:47.387,450.537,,
97,21 Aug 2019 04:30:44.095,21 Aug 2019 04:40:34.428,590.334,,
98,21 Aug 2019 06:06:26.419,21 Aug 2019 06:17:07.294,640.875,,
99,21 Aug 2019 07:43:36.211,21 Aug 2019 07:53:39.232,603.02,,
100,21 Aug 2019 09:20:39.713,21 Aug 2019 09:30:49.318,609.606,,
101,21 Aug 2019 10:57:06.706,21 Aug 2019 11:07:50.136,643.43,,
102,21 Aug 2019 12:33:50.290,21 Aug 2019 12:43:02.686,552.396,,
103,22 Aug 2019 03:37:40.610,22 Aug 2019 03:46:20.667,520.058,,
104,22 Aug 2019 05:12:31.179,22 Aug 2019 05:23:14.062,642.883,,
105,22 Aug 2019 06:49:24.385,22 Aug 2019 06:59:38.936,614.551,,
106,22 Aug 2019 08:26:37.699,22 Aug 2019 08:36:37.600,599.901,,
107,22 Aug 2019 10:03:13.618,22 Aug 2019 10:13:51.176,637.557,,
108,22 Aug 2019 11:39:42.029,22 Aug 2019 11:49:49.859,607.83,,
109,22 Aug 2019 13:18:51.785,22 Aug 2019 13:21:28.303,156.519,,
110,23 Aug 2019 02:45:12.202,23 Aug 2019 02:51:41.624,389.422,,
111,23 Aug 2019 04:18:47.676,23 Aug 2019 04:29:18.753,631.077,,
112,23 Aug 2019 05:55:14.333,23 Aug 2019 06:05:42.583,628.25,,
113,23 Aug 2019 07:32:31.146,23 Aug 2019 07:42:28.025,596.879,,
114,23 Aug 2019 09:09:19.419,23 Aug 2019 09:19:44.750,625.331,,
115,23 Aug 2019 10:45:42.879,23 Aug 2019 10:56:17.978,635.099,,
116,23 Aug 2019 12:23:07.303,23 Aug 2019 12:30:12.888,425.585,,
117,24 Aug 2019 03:25:19.420,24 Aug 2019 03:35:18.121,598.701,,
118,24 Aug 2019 05:01:09.254,24 Aug 2019 05:11:48.780,639.526,,
119,24 Aug 2019 06:38:20.929,24 Aug 2019 06:48:22.399,601.47,,
120,24 Aug 2019 08:15:22.328,24 Aug 2019 08:25:34.034,611.706,,
121,24 Aug 2019 09:51:48.255,24 Aug 2019 10:02:31.673,643.418,,
122,24 Aug 2019 11:28:35.823,24 Aug 2019 11:37:34.814,538.991,,
123,25 Aug 2019 02:32:11.608,25 Aug 2019 02:41:07.003,535.395,,
124,25 Aug 2019 04:07:12.300,25 Aug 2019 04:17:55.665,643.365,,
125,25 Aug 2019 05:44:09.096,25 Aug 2019 05:54:21.356,612.26,,
126,25 Aug 2019 07:21:21.091,25 Aug 2019 07:31:22.212,601.121,,
127,25 Aug 2019 08:57:55.152,25 Aug 2019 09:08:34.305,639.153,,
128,25 Aug 2019 10:34:25.316,25 Aug 2019 10:44:25.957,600.641,,
129,26 Aug 2019 01:39:35.333,26 Aug 2019 01:46:34.143,418.81,,
130,26 Aug 2019 03:13:26.548,26 Aug 2019 03:24:00.914,634.366,,
131,26 Aug 2019 04:49:58.502,26 Aug 2019 05:00:24.424,625.922,,
132,26 Aug 2019 06:27:15.276,26 Aug 2019 06:37:12.126,596.85,,
133,26 Aug 2019 08:04:01.277,26 Aug 2019 08:14:28.952,627.675,,
134,26 Aug 2019 09:40:25.008,26 Aug 2019 09:50:56.964,631.956,,
135,26 Aug 2019 11:17:59.378,26 Aug 2019 11:24:36.531,397.153,,
136,27 Aug 2019 00:48:30.705,27 Aug 2019 00:50:39.299,128.594,,
137,27 Aug 2019 02:19:55.376,27 Aug 2019 02:30:01.482,606.106,,
138,27 Aug 2019 03:55:52.330,27 Aug 2019 04:06:30.308,637.979,,
139,27 Aug 2019 05:33:05.559,27 Aug 2019 05:43:05.757,600.198,,
140,27 Aug 2019 07:10:04.779,27 Aug 2019 07:20:18.755,613.976,,
141,27 Aug 2019 08:46:29.843,27 Aug 2019 08:57:12.888,643.045,,
142,27 Aug 2019 10:23:22.002,27 Aug 2019 10:32:06.042,524.04,,
143,28 Aug 2019 01:26:43.525,28 Aug 2019 01:35:52.674,549.149,,
144,28 Aug 2019 03:01:53.758,28 Aug 2019 03:12:37.225,643.468,,
145,28 Aug 2019 04:38:53.809,28 Aug 2019 04:49:03.945,610.136,,
146,28 Aug 2019 06:16:04.289,28 Aug 2019 06:26:06.918,602.629,,
147,28 Aug 2019 07:52:36.640,28 Aug 2019 08:03:17.208,640.569,,
148,28 Aug 2019 09:29:08.935,28 Aug 2019 09:39:01.437,592.502,,
149,29 Aug 2019 00:34:00.416,29 Aug 2019 00:41:24.945,444.529,,
150,29 Aug 2019 02:08:05.854,29 Aug 2019 02:18:42.922,637.069,,
151,29 Aug 2019 03:44:42.764,29 Aug 2019 03:55:06.373,623.61,,
152,29 Aug 2019 05:21:59.230,29 Aug 2019 05:31:56.379,597.149,,
153,29 Aug 2019 06:58:43.018,29 Aug 2019 07:09:13.017,629.998,,
154,29 Aug 2019 08:35:07.292,29 Aug 2019 08:45:35.473,628.182,,
155,29 Aug 2019 10:12:53.531,29 Aug 2019 10:18:57.833,364.302,,
156,29 Aug 2019 23:42:23.129,29 Aug 2019 23:46:01.046,217.917,,
157,30 Aug 2019 01:14:31.899,30 Aug 2019 01:24:44.529,612.63,,
158,30 Aug 2019 02:50:35.601,30 Aug 2019 03:01:11.878,636.277,,
159,30 Aug 2019 04:27:50.065,30 Aug 2019 04:37:49.286,599.221,,
160,30 Aug 2019 06:04:47.050,30 Aug 2019 06:15:03.441,616.391,,
161,30 Aug 2019 07:41:11.474,30 Aug 2019 07:51:53.723,642.25,,
162,30 Aug 2019 09:18:08.908,30 Aug 2019 09:26:36.232,507.324,,
163,31 Aug 2019 00:21:16.263,31 Aug 2019 00:30:37.750,561.487,,
164,31 Aug 2019 01:56:35.501,31 Aug 2019 02:07:18.729,643.228,,
165,31 Aug 2019 03:33:38.474,31 Aug 2019 03:43:46.672,608.198,,
166,31 Aug 2019 05:10:47.284,31 Aug 2019 05:20:51.682,604.398,,
167,31 Aug 2019 06:47:18.080,31 Aug 2019 06:57:59.835,641.755,,
168,31 Aug 2019 08:23:52.906,31 Aug 2019 08:33:36.228,583.322,,
169,31 Aug 2019 23:28:27.078,31 Aug 2019 23:36:14.348,467.27,,
170,1 Sep 2019 01:02:45.541,1 Sep 2019 01:13:24.779,639.237,,
171,1 Sep 2019 02:39:27.085,1 Sep 2019 02:49:48.421,621.335,,
172,1 Sep 2019 04:16:42.979,1 Sep 2019 04:26:40.749,597.77,,
173,1 Sep 2019 05:53:24.634,1 Sep 2019 06:03:56.905,632.271,,
174,1 Sep 2019 07:29:49.744,1 Sep 2019 07:40:13.456,623.712,,
175,1 Sep 2019 09:07:50.470,1 Sep 2019 09:13:16.027,325.557,,
176,1 Sep 2019 22:36:30.771,1 Sep 2019 22:41:07.725,276.954,,
177,2 Sep 2019 00:09:08.922,2 Sep 2019 00:19:27.286,618.365,,
178,2 Sep 2019 01:45:19.026,2 Sep 2019 01:55:53.473,634.446,,
179,2 Sep 2019 03:22:34.416,2 Sep 2019 03:32:32.955,598.539,,
180,2 Sep 2019 04:59:29.140,2 Sep 2019 05:09:48.046,618.906,,
181,2 Sep 2019 06:35:53.147,2 Sep 2019 06:46:34.146,640.999,,
182,2 Sep 2019 08:12:56.645,2 Sep 2019 08:21:05.236,488.591,,
183,2 Sep 2019 23:15:49.717,2 Sep 2019 23:25:22.289,572.572,,
184,3 Sep 2019 00:51:17.496,3 Sep 2019 01:02:00.185,642.689,,
185,3 Sep 2019 02:28:23.068,3 Sep 2019 02:38:29.535,606.467,,
186,3 Sep 2019 04:05:30.062,3 Sep 2019 04:15:36.457,606.395,,
187,3 Sep 2019 05:41:59.472,3 Sep 2019 05:52:42.135,642.663,,
188,3 Sep 2019 07:18:37.264,3 Sep 2019 07:28:10.249,572.985,,
189,3 Sep 2019 22:22:55.041,3 Sep 2019 22:31:02.606,487.564,,
190,3 Sep 2019 23:57:25.569,4 Sep 2019 00:08:06.485,640.917,,
191,4 Sep 2019 01:34:11.429,4 Sep 2019 01:44:30.552,619.123,,
192,4 Sep 2019 03:11:26.518,4 Sep 2019 03:21:25.201,598.682,,
193,4 Sep 2019 04:48:06.123,4 Sep 2019 04:58:40.568,634.445,,
194,4 Sep 2019 06:24:32.375,4 Sep 2019 06:34:50.859,618.484,,
195,4 Sep 2019 08:02:51.453,4 Sep 2019 08:07:29.802,278.349,,
196,4 Sep 2019 21:30:45.000,4 Sep 2019 21:36:07.944,322.945,,
197,4 Sep 2019 23:03:46.392,4 Sep 2019 23:14:09.763,623.371,,
198,5 Sep 2019 00:40:02.571,5 Sep 2019 00:50:35.088,632.517,,
199,5 Sep 2019 02:17:18.591,5 Sep 2019 02:27:16.739,598.148,,
200,5 Sep 2019 03:54:11.044,5 Sep 2019 04:04:32.527,621.483,,
201,5 Sep 2019 05:30:34.867,5 Sep 2019 05:41:14.109,639.242,,
202,5 Sep 2019 07:07:45.346,5 Sep 2019 07:15:32.877,467.531,,
203,5 Sep 2019 22:10:23.808,5 Sep 2019 22:20:06.344,582.536,,
204,5 Sep 2019 23:45:59.696,5 Sep 2019 23:56:41.587,641.89,,
205,6 Sep 2019 01:23:07.561,6 Sep 2019 01:33:12.505,604.944,,
206,6 Sep 2019 03:00:12.619,6 Sep 2019 03:10:21.198,608.579,,
207,6 Sep 2019 04:36:40.809,6 Sep 2019 04:47:24.077,643.269,,
208,6 Sep 2019 06:13:22.032,6 Sep 2019 06:22:43.434,561.402,,
209,6 Sep 2019 21:17:24.105,6 Sep 2019 21:25:49.881,505.775,,
210,6 Sep 2019 22:52:05.893,6 Sep 2019 23:02:48.051,642.158,,
211,7 Sep 2019 00:28:55.770,7 Sep 2019 00:39:12.756,616.986,,
212,7 Sep 2019 02:06:09.825,7 Sep 2019 02:16:09.700,599.874,,
213,7 Sep 2019 03:42:47.491,7 Sep 2019 03:53:23.967,636.477,,
214,7 Sep 2019 05:19:15.188,7 Sep 2019 05:29:27.635,612.448,,
215,7 Sep 2019 06:57:59.257,7 Sep 2019 07:01:36.348,217.091,,
216,7 Sep 2019 20:25:03.229,7 Sep 2019 20:31:04.276,361.047,,
217,7 Sep 2019 21:58:24.272,7 Sep 2019 22:08:51.983,627.71,,
218,7 Sep 2019 23:34:46.211,7 Sep 2019 23:45:16.720,630.509,,
219,8 Sep 2019 01:12:02.574,8 Sep 2019 01:22:00.612,598.038,,
220,8 Sep 2019 02:48:52.766,8 Sep 2019 02:59:16.845,624.079,,
221,8 Sep 2019 04:25:16.638,8 Sep 2019 04:35:53.578,636.94,,
222,8 Sep 2019 06:02:35.188,8 Sep 2019 06:09:58.954,443.766,,
223,8 Sep 2019 21:04:58.470,8 Sep 2019 21:14:49.961,591.491,,
224,8 Sep 2019 22:40:42.081,8 Sep 2019 22:51:22.934,640.853,,
225,9 Sep 2019 00:17:51.933,9 Sep 2019 00:27:55.568,603.634,,
226,9 Sep 2019 01:54:54.952,9 Sep 2019 02:05:05.881,610.93,,
227,9 Sep 2019 03:31:22.109,9 Sep 2019 03:42:05.624,643.515,,
228,9 Sep 2019 05:08:07.270,9 Sep 2019 05:17:15.705,548.435,,
229,9 Sep 2019 20:11:54.125,9 Sep 2019 20:20:36.321,522.196,,
230,9 Sep 2019 21:46:46.495,9 Sep 2019 21:57:29.479,642.984,,
231,9 Sep 2019 23:23:40.074,9 Sep 2019 23:33:55.022,614.948,,
232,10 Sep 2019 01:00:52.905,10 Sep 2019 01:10:54.213,601.308,,
233,10 Sep 2019 02:37:28.739,10 Sep 2019 02:48:07.068,638.329,,
234,10 Sep 2019 04:13:58.213,10 Sep 2019 04:24:03.744,605.531,,
235,10 Sep 2019 05:53:23.776,10 Sep 2019 05:55:25.739,121.963,,
236,10 Sep 2019 19:19:24.235,10 Sep 2019 19:25:57.924,393.69,,
237,10 Sep 2019 20:53:02.525,10 Sep 2019 21:03:33.965,631.439,,
238,10 Sep 2019 22:29:29.912,10 Sep 2019 22:39:58.362,628.449,,
239,11 Sep 2019 00:06:46.362,11 Sep 2019 00:16:44.549,598.188,,
240,11 Sep 2019 01:43:34.312,11 Sep 2019 01:54:00.963,626.651,,
241,11 Sep 2019 03:19:58.474,11 Sep 2019 03:30:32.514,634.039,,
242,11 Sep 2019 04:57:26.415,11 Sep 2019 05:04:23.180,416.765,,
243,11 Sep 2019 19:59:33.649,11 Sep 2019 20:09:33.179,599.53,,
244,11 Sep 2019 21:35:24.622,11 Sep 2019 21:46:04.229,639.606,,
245,11 Sep 2019 23:12:36.171,11 Sep 2019 23:22:38.702,602.531,,
246,12 Sep 2019 00:49:37.070,12 Sep 2019 00:59:50.459,613.389,,
247,12 Sep 2019 02:26:03.374,12 Sep 2019 02:36:46.750,643.376,,
248,12 Sep 2019 04:02:53.032,12 Sep 2019 04:11:46.978,533.946,,
249,12 Sep 2019 19:06:24.980,12 Sep 2019 19:15:22.039,537.059,,
250,12 Sep 2019 20:41:27.339,12 Sep 2019 20:52:10.786,643.447,,
251,12 Sep 2019 22:18:24.337,12 Sep 2019 22:28:37.340,613.003,,
252,12 Sep 2019 23:55:35.754,13 Sep 2019 00:05:38.705,602.95,,
253,13 Sep 2019 01:32:09.877,13 Sep 2019 01:42:49.837,639.96,,
254,13 Sep 2019 03:08:41.462,13 Sep 2019 03:18:39.142,597.68,,
255,13 Sep 2019 18:13:47.352,13 Sep 2019 18:20:49.562,422.21,,
256,13 Sep 2019 19:47:41.116,13 Sep 2019 19:58:15.723,634.606,,
257,13 Sep 2019 21:24:13.669,13 Sep 2019 21:34:40.011,626.342,,
258,13 Sep 2019 23:01:29.944,13 Sep 2019 23:11:28.525,598.581,,
259,14 Sep 2019 00:38:15.696,14 Sep 2019 00:48:44.848,629.152,,
260,14 Sep 2019 02:14:40.385,14 Sep 2019 02:25:10.889,630.504,,
261,14 Sep 2019 03:52:19.376,14 Sep 2019 03:58:45.193,385.816,,
262,14 Sep 2019 17:22:35.969,14 Sep 2019 17:25:00.387,144.418,,
263,14 Sep 2019 18:54:09.309,14 Sep 2019 19:04:16.043,606.734,,
264,14 Sep 2019 20:30:07.316,14 Sep 2019 20:40:45.477,638.161,,
265,14 Sep 2019 22:07:20.273,14 Sep 2019 22:17:21.902,601.629,,
266,14 Sep 2019 23:44:18.982,14 Sep 2019 23:54:34.905,615.922,,
267,15 Sep 2019 01:20:44.619,15 Sep 2019 01:31:27.418,642.798,,
268,15 Sep 2019 02:57:39.387,15 Sep 2019 03:06:17.166,517.779,,
269,15 Sep 2019 18:00:56.587,15 Sep 2019 18:10:07.121,550.534,,
270,15 Sep 2019 19:36:08.418,15 Sep 2019 19:46:51.969,643.551,,
271,15 Sep 2019 21:13:08.546,15 Sep 2019 21:23:19.701,611.155,,
272,15 Sep 2019 22:50:18.397,15 Sep 2019 23:00:23.163,604.766,,
273,16 Sep 2019 00:26:50.934,16 Sep 2019 00:37:32.257,641.323,,
274,16 Sep 2019 02:03:24.978,16 Sep 2019 02:13:13.797,588.819,,
275,16 Sep 2019 17:08:12.141,16 Sep 2019 17:15:39.644,447.504,,
276,16 Sep 2019 18:42:20.038,16 Sep 2019 18:52:57.288,637.25,,
277,16 Sep 2019 20:18:57.468,16 Sep 2019 20:29:21.669,624.201,,
278,16 Sep 2019 21:56:13.333,16 Sep 2019 22:06:12.522,599.189,,
279,16 Sep 2019 23:32:56.936,16 Sep 2019 23:43:28.483,631.547,,
280,17 Sep 2019 01:09:22.398,17 Sep 2019 01:19:48.687,626.289,,
281,17 Sep 2019 02:47:14.605,17 Sep 2019 02:53:04.452,349.848,,
282,17 Sep 2019 16:16:31.025,17 Sep 2019 16:20:18.403,227.378,,
283,17 Sep 2019 17:48:45.419,17 Sep 2019 17:58:58.591,613.172,,
284,17 Sep 2019 19:24:50.140,17 Sep 2019 19:35:26.681,636.541,,
285,17 Sep 2019 21:02:04.234,17 Sep 2019 21:12:05.148,600.913,,
286,17 Sep 2019 22:39:00.718,17 Sep 2019 22:49:19.197,618.48,,
287,18 Sep 2019 00:15:25.876,18 Sep 2019 00:26:07.634,641.758,,
288,18 Sep 2019 01:52:26.441,18 Sep 2019 02:00:46.193,499.752,,
289,18 Sep 2019 16:55:28.874,18 Sep 2019 17:04:51.666,562.791,,
290,18 Sep 2019 18:30:49.732,18 Sep 2019 18:41:33.062,643.33,,
291,18 Sep 2019 20:07:52.713,18 Sep 2019 20:18:02.116,609.402,,
292,18 Sep 2019 21:45:00.846,18 Sep 2019 21:55:07.564,606.718,,
293,18 Sep 2019 23:21:31.924,18 Sep 2019 23:32:14.322,642.398,,
294,19 Sep 2019 00:58:08.795,19 Sep 2019 01:07:47.678,578.882,,
295,19 Sep 2019 16:02:38.336,19 Sep 2019 16:10:28.473,470.137,,
296,19 Sep 2019 17:36:59.279,19 Sep 2019 17:47:38.691,639.412,,
297,19 Sep 2019 19:13:41.315,19 Sep 2019 19:24:03.347,622.032,,
298,19 Sep 2019 20:50:56.547,19 Sep 2019 21:00:56.532,599.985,,
299,19 Sep 2019 22:27:38.062,19 Sep 2019 22:38:11.865,633.803,,
300,20 Sep 2019 00:04:04.546,20 Sep 2019 00:14:25.901,621.355,,
301,20 Sep 2019 01:42:13.016,20 Sep 2019 01:47:20.056,307.04,,
302,20 Sep 2019 15:10:38.938,20 Sep 2019 15:15:23.726,284.789,,
303,20 Sep 2019 16:43:21.964,20 Sep 2019 16:53:40.868,618.904,,
304,20 Sep 2019 18:19:33.114,20 Sep 2019 18:30:07.864,634.749,,
305,20 Sep 2019 19:56:48.077,20 Sep 2019 20:06:48.447,600.37,,
306,20 Sep 2019 21:33:42.303,20 Sep 2019 21:44:03.332,621.029,,
307,20 Sep 2019 23:10:07.144,20 Sep 2019 23:20:47.371,640.227,,
308,21 Sep 2019 00:47:14.289,21 Sep 2019 00:55:13.933,479.644,,
309,21 Sep 2019 15:50:01.812,21 Sep 2019 15:59:35.717,573.905,,
310,21 Sep 2019 17:25:31.271,21 Sep 2019 17:36:14.066,642.795,,
311,21 Sep 2019 19:02:36.821,21 Sep 2019 19:12:44.572,607.751,,
312,21 Sep 2019 20:39:43.113,21 Sep 2019 20:49:51.881,608.768,,
313,21 Sep 2019 22:16:12.865,21 Sep 2019 22:26:56.006,643.141,,
314,21 Sep 2019 23:52:52.937,22 Sep 2019 00:02:20.749,567.812,,
315,22 Sep 2019 14:57:05.747,22 Sep 2019 15:05:16.256,490.509,,
316,22 Sep 2019 16:31:38.839,22 Sep 2019 16:42:19.931,641.092,,
317,22 Sep 2019 18:08:25.202,22 Sep 2019 18:18:45.049,619.847,,
318,22 Sep 2019 19:45:39.595,22 Sep 2019 19:55:40.542,600.947,,
319,22 Sep 2019 21:22:19.084,22 Sep 2019 21:32:54.958,635.875,,
320,22 Sep 2019 22:58:46.831,22 Sep 2019 23:09:02.507,615.676,,
321,23 Sep 2019 00:37:16.280,23 Sep 2019 00:41:30.323,254.043,,
322,23 Sep 2019 14:04:52.913,23 Sep 2019 14:10:23.176,330.262,,
323,23 Sep 2019 15:37:58.943,23 Sep 2019 15:48:22.892,623.949,,
324,23 Sep 2019 17:14:16.222,23 Sep 2019 17:24:49.025,632.804,,
325,23 Sep 2019 18:51:31.786,23 Sep 2019 19:01:31.783,599.997,,
326,23 Sep 2019 20:28:23.744,23 Sep 2019 20:38:47.276,623.532,,
327,23 Sep 2019 22:04:48.456,23 Sep 2019 22:15:26.634,638.179,,
328,23 Sep 2019 23:42:03.081,23 Sep 2019 23:49:40.268,457.187,,
329,24 Sep 2019 14:44:35.368,24 Sep 2019 14:54:19.359,583.991,,
330,24 Sep 2019 16:20:13.037,24 Sep 2019 16:30:55.007,641.97,,
331,24 Sep 2019 17:57:20.886,24 Sep 2019 18:07:27.084,606.198,,
332,24 Sep 2019 19:34:25.227,24 Sep 2019 19:44:36.117,610.89,,
333,24 Sep 2019 21:10:53.779,24 Sep 2019 21:21:37.321,643.541,,
334,24 Sep 2019 22:47:37.474,24 Sep 2019 22:56:52.995,555.521,,
335,25 Sep 2019 13:51:34.245,25 Sep 2019 14:00:03.176,508.931,,
336,25 Sep 2019 15:26:18.720,25 Sep 2019 15:37:01.053,642.334,,
337,25 Sep 2019 17:03:09.140,25 Sep 2019 17:13:26.782,617.642,,
338,25 Sep 2019 18:40:22.489,25 Sep 2019 18:50:24.541,602.053,,
339,25 Sep 2019 20:17:00.032,25 Sep 2019 20:27:37.770,637.738,,
340,25 Sep 2019 21:53:29.297,25 Sep 2019 22:03:38.512,609.215,,
341,25 Sep 2019 23:32:28.793,25 Sep 2019 23:35:30.890,182.097,,
342,26 Sep 2019 12:59:10.720,26 Sep 2019 13:05:19.040,368.319,,
343,26 Sep 2019 14:32:36.354,26 Sep 2019 14:43:04.706,628.352,,
344,26 Sep 2019 16:08:59.479,26 Sep 2019 16:19:30.191,630.712,,
345,26 Sep 2019 17:46:15.396,26 Sep 2019 17:56:15.167,599.771,,
346,26 Sep 2019 19:23:05.076,26 Sep 2019 19:33:31.044,625.967,,
347,26 Sep 2019 20:59:29.843,26 Sep 2019 21:10:05.429,635.586,,
348,26 Sep 2019 22:36:53.029,26 Sep 2019 22:44:05.029,432,,
349,27 Sep 2019 13:39:09.528,27 Sep 2019 13:49:02.634,593.106,,
350,27 Sep 2019 15:14:55.042,27 Sep 2019 15:25:35.909,640.867,,
351,27 Sep 2019 16:52:04.921,27 Sep 2019 17:02:09.662,604.741,,
352,27 Sep 2019 18:29:07.207,27 Sep 2019 18:39:20.270,613.063,,
353,27 Sep 2019 20:05:34.701,27 Sep 2019 20:16:18.264,643.563,,
354,27 Sep 2019 21:42:22.462,27 Sep 2019 21:51:24.382,541.92,,
355,28 Sep 2019 12:46:03.733,28 Sep 2019 12:54:49.361,525.629,,
356,28 Sep 2019 14:20:58.932,28 Sep 2019 14:31:42.078,643.146,,
357,28 Sep 2019 15:57:53.144,28 Sep 2019 16:08:08.575,615.431,,
358,28 Sep 2019 17:35:05.263,28 Sep 2019 17:45:08.546,603.283,,
359,28 Sep 2019 19:11:40.937,28 Sep 2019 19:22:20.313,639.376,,
360,28 Sep 2019 20:48:11.978,28 Sep 2019 20:58:13.920,601.942,,
361,28 Sep 2019 22:28:29.999,28 Sep 2019 22:28:42.350,12.351,,
362,29 Sep 2019 11:53:31.303,29 Sep 2019 12:00:12.409,401.106,,
363,29 Sep 2019 13:27:14.200,29 Sep 2019 13:37:46.349,632.149,,
364,29 Sep 2019 15:03:42.891,29 Sep 2019 15:14:11.384,628.494,,
365,29 Sep 2019 16:40:58.923,29 Sep 2019 16:50:58.610,599.687,,
366,29 Sep 2019 18:17:46.329,29 Sep 2019 18:28:14.637,628.308,,
367,29 Sep 2019 19:54:11.336,29 Sep 2019 20:04:43.767,632.431,,
368,29 Sep 2019 21:31:44.404,29 Sep 2019 21:38:27.981,403.576,,
369,30 Sep 2019 12:33:44.292,30 Sep 2019 12:43:45.603,601.311,,
370,30 Sep 2019 14:09:37.303,30 Sep 2019 14:20:16.798,639.495,,
371,30 Sep 2019 15:46:48.937,30 Sep 2019 15:56:52.325,603.388,,
372,30 Sep 2019 17:23:49.085,30 Sep 2019 17:34:04.345,615.259,,
373,30 Sep 2019 19:00:15.658,30 Sep 2019 19:10:58.846,643.189,,
374,30 Sep 2019 20:37:07.976,30 Sep 2019 20:45:54.887,526.911,,
375,1 Oct 2019 11:40:34.163,1 Oct 2019 11:49:34.922,540.758,,
376,1 Oct 2019 13:15:39.487,1 Oct 2019 13:26:23.035,643.548,,
377,1 Oct 2019 14:52:37.210,1 Oct 2019 15:02:50.446,613.236,,
378,1 Oct 2019 16:29:47.937,1 Oct 2019 16:39:52.564,604.627,,
379,1 Oct 2019 18:06:21.831,1 Oct 2019 18:17:02.594,640.763,,
380,1 Oct 2019 19:42:54.927,1 Oct 2019 19:52:48.732,593.806,,
381,2 Oct 2019 10:47:54.094,2 Oct 2019 10:55:03.919,429.825,,
382,2 Oct 2019 12:21:52.500,2 Oct 2019 12:32:27.852,635.352,,
383,2 Oct 2019 13:58:26.472,2 Oct 2019 14:08:52.631,626.159,,
384,2 Oct 2019 15:35:42.374,2 Oct 2019 15:45:42.126,599.752,,
385,2 Oct 2019 17:12:27.528,2 Oct 2019 17:22:58.066,630.539,,
386,2 Oct 2019 18:48:52.966,2 Oct 2019 18:59:21.654,628.688,,
387,2 Oct 2019 20:26:37.597,2 Oct 2019 20:32:48.769,371.173,,
388,3 Oct 2019 09:56:30.871,3 Oct 2019 09:59:25.656,174.786,,
389,3 Oct 2019 11:28:19.647,3 Oct 2019 11:38:28.312,608.666,,
390,3 Oct 2019 13:04:19.823,3 Oct 2019 13:14:57.701,637.878,,
391,3 Oct 2019 14:41:32.944,3 Oct 2019 14:51:35.088,602.143,,
392,3 Oct 2019 16:18:30.886,3 Oct 2019 16:28:48.346,617.46,,
393,3 Oct 2019 17:54:56.675,3 Oct 2019 18:05:39.093,642.418,,
394,3 Oct 2019 19:31:54.109,3 Oct 2019 19:40:24.464,510.355,,
395,4 Oct 2019 10:35:05.480,4 Oct 2019 10:44:19.951,554.47,,
396,4 Oct 2019 12:10:20.403,4 Oct 2019 12:21:03.963,643.56,,
397,4 Oct 2019 13:47:21.362,4 Oct 2019 13:57:32.423,611.061,,
398,4 Oct 2019 15:24:30.521,4 Oct 2019 15:34:36.594,606.073,,
399,4 Oct 2019 17:01:02.728,4 Oct 2019 17:11:44.626,641.898,,
400,4 Oct 2019 18:37:38.173,4 Oct 2019 18:47:22.944,584.771,,
401,5 Oct 2019 09:42:18.713,5 Oct 2019 09:49:53.977,455.264,,
402,5 Oct 2019 11:16:31.257,5 Oct 2019 11:27:09.246,637.99,,
403,5 Oct 2019 12:53:10.224,5 Oct 2019 13:03:33.956,623.732,,
404,5 Oct 2019 14:30:25.765,5 Oct 2019 14:40:25.728,599.963,,
405,5 Oct 2019 16:07:08.696,5 Oct 2019 16:17:41.334,632.637,,
406,5 Oct 2019 17:43:34.766,5 Oct 2019 17:53:59.100,624.334,,
407,5 Oct 2019 19:21:33.226,5 Oct 2019 19:27:06.834,333.609,,
408,6 Oct 2019 08:50:30.229,6 Oct 2019 08:54:39.352,249.123,,
409,6 Oct 2019 10:22:55.605,6 Oct 2019 10:33:10.792,615.187,,
410,6 Oct 2019 11:59:02.618,6 Oct 2019 12:09:38.650,636.032,,
411,6 Oct 2019 13:36:16.954,6 Oct 2019 13:46:17.979,601.025,,
412,6 Oct 2019 15:13:12.629,6 Oct 2019 15:23:32.292,619.664,,
413,6 Oct 2019 16:49:37.790,6 Oct 2019 17:00:18.997,641.207,,
414,6 Oct 2019 18:26:40.956,6 Oct 2019 18:34:53.047,492.091,,
415,7 Oct 2019 09:29:37.657,7 Oct 2019 09:39:04.528,566.871,,
416,7 Oct 2019 11:05:01.684,7 Oct 2019 11:15:44.875,643.191,,
417,7 Oct 2019 12:42:05.589,7 Oct 2019 12:52:14.519,608.93,,
418,7 Oct 2019 14:19:13.039,7 Oct 2019 14:29:20.655,607.615,,
419,7 Oct 2019 15:55:43.670,7 Oct 2019 16:06:26.408,642.739,,
420,7 Oct 2019 17:32:21.783,7 Oct 2019 17:41:56.548,574.765,,
421,8 Oct 2019 08:36:44.929,8 Oct 2019 08:44:42.859,477.93,,
422,8 Oct 2019 10:11:10.481,8 Oct 2019 10:21:50.571,640.09,,
423,8 Oct 2019 11:47:54.158,8 Oct 2019 11:58:15.384,621.226,,
424,8 Oct 2019 13:25:09.107,8 Oct 2019 13:35:09.429,600.322,,
425,8 Oct 2019 15:01:49.858,8 Oct 2019 15:12:24.451,634.593,,
426,8 Oct 2019 16:38:16.775,8 Oct 2019 16:48:36.114,619.339,,
427,8 Oct 2019 18:16:32.319,8 Oct 2019 18:21:21.181,288.862,,
428,9 Oct 2019 07:44:39.928,9 Oct 2019 07:49:43.140,303.213,,
429,9 Oct 2019 09:17:32.170,9 Oct 2019 09:27:53.091,620.921,,
430,9 Oct 2019 10:53:45.689,9 Oct 2019 11:04:19.664,633.974,,
431,9 Oct 2019 12:31:00.958,9 Oct 2019 12:41:01.010,600.052,,
432,9 Oct 2019 14:07:54.332,9 Oct 2019 14:18:16.183,621.851,,
433,9 Oct 2019 15:44:19.022,9 Oct 2019 15:54:58.581,639.56,,
434,9 Oct 2019 17:21:28.663,9 Oct 2019 17:29:20.550,471.887,,
435,10 Oct 2019 08:24:10.666,10 Oct 2019 08:33:48.706,578.041,,
436,10 Oct 2019 09:59:43.343,10 Oct 2019 10:10:25.810,642.467,,
437,10 Oct 2019 11:36:49.902,10 Oct 2019 11:46:56.772,606.87,,
438,10 Oct 2019 13:13:55.507,10 Oct 2019 13:24:04.763,609.256,,
439,10 Oct 2019 14:50:24.671,10 Oct 2019 15:01:07.963,643.292,,
440,10 Oct 2019 16:27:05.796,10 Oct 2019 16:36:29.538,563.742,,
441,11 Oct 2019 07:31:12.566,11 Oct 2019 07:39:30.779,498.212,,
442,11 Oct 2019 09:05:50.184,11 Oct 2019 09:16:31.839,641.655,,
443,11 Oct 2019 10:42:38.271,11 Oct 2019 10:52:56.951,618.68,,
444,11 Oct 2019 12:19:52.404,11 Oct 2019 12:29:53.254,600.85,,
445,11 Oct 2019 13:56:31.034,11 Oct 2019 14:07:07.429,636.395,,
446,11 Oct 2019 15:32:59.021,11 Oct 2019 15:43:12.695,613.673,,
447,11 Oct 2019 17:11:36.983,11 Oct 2019 17:15:29.765,232.782,,
448,12 Oct 2019 06:38:55.191,12 Oct 2019 06:44:41.847,346.655,,
449,12 Oct 2019 08:12:09.326,12 Oct 2019 08:22:35.244,625.918,,
450,12 Oct 2019 09:48:29.042,12 Oct 2019 09:59:00.774,631.732,,
451,12 Oct 2019 11:25:44.967,12 Oct 2019 11:35:44.205,599.238,,
452,12 Oct 2019 13:02:36.010,12 Oct 2019 13:13:00.026,624.016,,
453,12 Oct 2019 14:39:00.398,12 Oct 2019 14:49:37.848,637.45,,
454,12 Oct 2019 16:16:17.385,12 Oct 2019 16:23:46.862,449.477,,
455,13 Oct 2019 07:18:44.480,13 Oct 2019 07:28:32.542,588.062,,
456,13 Oct 2019 08:54:25.371,13 Oct 2019 09:05:06.790,641.419,,
457,13 Oct 2019 10:31:34.292,13 Oct 2019 10:41:39.198,604.906,,
458,13 Oct 2019 12:08:37.921,13 Oct 2019 12:18:48.917,610.996,,
459,13 Oct 2019 13:45:05.751,13 Oct 2019 13:55:49.295,643.545,,
460,13 Oct 2019 15:21:50.289,13 Oct 2019 15:31:01.889,551.601,,
461,14 Oct 2019 06:25:41.493,14 Oct 2019 06:34:17.885,516.392,,
462,14 Oct 2019 08:00:30.356,14 Oct 2019 08:11:13.093,642.737,,
463,14 Oct 2019 09:37:22.554,14 Oct 2019 09:47:38.671,616.117,,
464,14 Oct 2019 11:14:35.653,14 Oct 2019 11:24:37.202,601.549,,
465,14 Oct 2019 12:51:12.238,14 Oct 2019 13:01:50.268,638.03,,
466,14 Oct 2019 14:27:41.542,14 Oct 2019 14:37:48.844,607.302,,
467,14 Oct 2019 16:06:53.314,14 Oct 2019 16:09:26.528,153.214,,
468,15 Oct 2019 05:33:14.194,15 Oct 2019 05:39:37.300,383.106,,
469,15 Oct 2019 07:06:47.082,15 Oct 2019 07:17:17.264,630.182,,
470,15 Oct 2019 08:43:12.660,15 Oct 2019 08:53:42.005,629.345,,
471,15 Oct 2019 10:20:28.968,15 Oct 2019 10:30:27.580,598.612,,
472,15 Oct 2019 11:57:17.673,15 Oct 2019 12:07:43.830,626.158,,
473,15 Oct 2019 13:33:41.950,15 Oct 2019 13:44:16.799,634.849,,
474,15 Oct 2019 15:11:07.354,15 Oct 2019 15:18:11.787,424.433,,
475,16 Oct 2019 06:13:19.074,16 Oct 2019 06:23:16.077,597.003,,
476,16 Oct 2019 07:49:07.763,16 Oct 2019 07:59:47.840,640.076,,
477,16 Oct 2019 09:26:18.744,16 Oct 2019 09:36:21.825,603.08,,
478,16 Oct 2019 11:03:20.294,16 Oct 2019 11:13:33.125,612.831,,
479,16 Oct 2019 12:39:46.932,16 Oct 2019 12:50:30.398,643.466,,
480,16 Oct 2019 14:16:35.326,16 Oct 2019 14:25:33.560,538.234,,
481,17 Oct 2019 05:20:11.593,17 Oct 2019 05:29:04.295,532.702,,
482,17 Oct 2019 06:55:10.994,17 Oct 2019 07:05:54.341,643.347,,
483,17 Oct 2019 08:32:06.992,17 Oct 2019 08:42:20.575,613.584,,
484,17 Oct 2019 10:09:18.857,17 Oct 2019 10:19:21.291,602.435,,
485,17 Oct 2019 11:45:53.482,17 Oct 2019 11:56:32.972,639.49,,
486,17 Oct 2019 13:22:24.380,17 Oct 2019 13:32:24.544,600.163,,
487,18 Oct 2019 04:27:36.009,18 Oct 2019 04:34:30.421,414.412,,
488,18 Oct 2019 06:01:25.413,18 Oct 2019 06:11:59.192,633.779,,
489,18 Oct 2019 07:37:56.532,18 Oct 2019 07:48:23.379,626.847,,
490,18 Oct 2019 09:15:12.954,18 Oct 2019 09:25:11.149,598.195,,
491,18 Oct 2019 10:51:59.326,18 Oct 2019 11:02:27.593,628.267,,
492,18 Oct 2019 12:28:23.701,18 Oct 2019 12:38:55.427,631.726,,
493,18 Oct 2019 14:05:58.848,18 Oct 2019 14:12:35.054,396.206,,
494,19 Oct 2019 03:36:38.170,19 Oct 2019 03:38:28.480,110.31,,
495,19 Oct 2019 05:07:54.415,19 Oct 2019 05:17:59.355,604.939,,
496,19 Oct 2019 06:43:50.509,19 Oct 2019 06:54:28.976,638.467,,
497,19 Oct 2019 08:21:03.241,19 Oct 2019 08:31:04.662,601.422,,
498,19 Oct 2019 09:58:02.618,19 Oct 2019 10:08:17.386,614.767,,
499,19 Oct 2019 11:34:28.226,19 Oct 2019 11:45:11.267,643.041,,
500,19 Oct 2019 13:11:20.988,19 Oct 2019 13:20:04.484,523.496,,
501,20 Oct 2019 04:14:42.784,20 Oct 2019 04:23:50.101,547.317,,
502,20 Oct 2019 05:49:52.080,20 Oct 2019 06:00:35.606,643.526,,
503,20 Oct 2019 07:26:51.564,20 Oct 2019 07:37:02.681,611.117,,
504,20 Oct 2019 09:04:02.001,20 Oct 2019 09:14:05.520,603.519,,
505,20 Oct 2019 10:40:34.775,20 Oct 2019 10:51:15.532,640.757,,
506,20 Oct 2019 12:17:07.572,20 Oct 2019 12:26:59.767,592.195,,
507,21 Oct 2019 03:22:00.078,21 Oct 2019 03:29:21.779,441.701,,
508,21 Oct 2019 04:56:04.305,21 Oct 2019 05:06:41.033,636.727,,
509,21 Oct 2019 06:32:40.635,21 Oct 2019 06:43:04.913,624.278,,
510,21 Oct 2019 08:09:56.897,21 Oct 2019 08:19:54.918,598.02,,
511,21 Oct 2019 09:46:40.970,21 Oct 2019 09:57:11.306,630.336,,
512,21 Oct 2019 11:23:05.661,21 Oct 2019 11:33:33.709,628.047,,
513,21 Oct 2019 13:00:52.303,21 Oct 2019 13:06:56.270,363.967,,
514,22 Oct 2019 02:30:24.696,22 Oct 2019 02:33:55.830,211.134,,
515,22 Oct 2019 04:02:30.474,22 Oct 2019 04:12:42.395,611.921,,
516,22 Oct 2019 05:38:33.587,22 Oct 2019 05:49:10.221,636.634,,
517,22 Oct 2019 07:15:47.761,22 Oct 2019 07:25:47.726,599.966,,
518,22 Oct 2019 08:52:44.887,22 Oct 2019 09:03:01.693,616.806,,
519,22 Oct 2019 10:29:09.646,22 Oct 2019 10:39:51.886,642.239,,
520,22 Oct 2019 12:06:07.363,22 Oct 2019 12:14:34.581,507.218,,
521,23 Oct 2019 03:09:14.978,23 Oct 2019 03:18:35.383,560.405,,
522,23 Oct 2019 04:44:33.596,23 Oct 2019 04:55:16.899,643.303,,
523,23 Oct 2019 06:21:36.236,23 Oct 2019 06:31:44.993,608.757,,
524,23 Oct 2019 07:58:45.073,23 Oct 2019 08:08:49.886,604.813,,
525,23 Oct 2019 09:35:16.121,23 Oct 2019 09:45:57.938,641.817,,
526,23 Oct 2019 11:11:51.156,23 Oct 2019 11:21:34.480,583.325,,
527,24 Oct 2019 02:16:26.018,24 Oct 2019 02:24:11.721,465.703,,
528,24 Oct 2019 03:50:43.732,24 Oct 2019 04:01:22.812,639.08,,
529,24 Oct 2019 05:27:24.937,24 Oct 2019 05:37:46.622,621.685,,
530,24 Oct 2019 07:04:40.776,24 Oct 2019 07:14:38.887,598.111,,
531,24 Oct 2019 08:41:22.605,24 Oct 2019 08:51:54.952,632.346,,
532,24 Oct 2019 10:17:47.863,24 Oct 2019 10:28:11.624,623.761,,
533,24 Oct 2019 11:55:48.378,24 Oct 2019 12:01:14.770,326.392,,
534,25 Oct 2019 01:24:30.420,25 Oct 2019 01:29:04.428,274.008,,
535,25 Oct 2019 02:57:07.201,25 Oct 2019 03:07:25.231,618.03,,
536,25 Oct 2019 04:33:16.966,25 Oct 2019 04:43:51.579,634.612,,
537,25 Oct 2019 06:10:32.266,25 Oct 2019 06:20:31.019,598.753,,
538,25 Oct 2019 07:47:27.100,25 Oct 2019 07:57:46.031,618.931,,
539,25 Oct 2019 09:23:51.203,25 Oct 2019 09:34:32.240,641.037,,
540,25 Oct 2019 11:00:54.568,25 Oct 2019 11:09:03.740,489.171,,
541,26 Oct 2019 02:03:48.095,26 Oct 2019 02:13:20.196,572.101,,
542,26 Oct 2019 03:39:15.516,26 Oct 2019 03:49:58.238,642.722,,
543,26 Oct 2019 05:16:20.981,26 Oct 2019 05:26:27.534,606.553,,
544,26 Oct 2019 06:53:28.056,26 Oct 2019 07:03:34.374,606.318,,
545,26 Oct 2019 08:29:57.525,26 Oct 2019 08:40:40.156,642.631,,
546,26 Oct 2019 10:06:35.180,26 Oct 2019 10:16:08.624,573.444,,
547,27 Oct 2019 01:10:53.550,27 Oct 2019 01:19:00.514,486.964,,
548,27 Oct 2019 02:45:23.662,27 Oct 2019 02:56:04.538,640.876,,
549,27 Oct 2019 04:22:09.410,27 Oct 2019 04:32:28.514,619.105,,
550,27 Oct 2019 05:59:24.576,27 Oct 2019 06:09:23.050,598.474,,
551,27 Oct 2019 07:36:04.230,27 Oct 2019 07:46:38.509,634.279,,
552,27 Oct 2019 09:12:30.323,27 Oct 2019 09:22:49.136,618.813,,
553,27 Oct 2019 10:50:48.207,27 Oct 2019 10:55:29.406,281.198,,
554,28 Oct 2019 00:18:43.755,28 Oct 2019 00:24:05.825,322.071,,
555,28 Oct 2019 01:51:44.559,28 Oct 2019 02:02:07.876,623.317,,
556,28 Oct 2019 03:28:00.613,28 Oct 2019 03:38:33.060,632.447,,
557,28 Oct 2019 05:05:16.721,28 Oct 2019 05:15:14.539,597.818,,
558,28 Oct 2019 06:42:09.240,28 Oct 2019 06:52:30.379,621.139,,
559,28 Oct 2019 08:18:32.902,28 Oct 2019 08:29:12.296,639.394,,
560,28 Oct 2019 09:55:42.742,28 Oct 2019 10:03:31.802,469.061,,
561,29 Oct 2019 00:58:22.057,29 Oct 2019 01:08:04.583,582.526,,
562,29 Oct 2019 02:33:57.793,29 Oct 2019 02:44:39.624,641.831,,
563,29 Oct 2019 04:11:05.756,29 Oct 2019 04:21:10.295,604.54,,
564,29 Oct 2019 05:48:10.932,29 Oct 2019 05:58:18.965,608.033,,
565,29 Oct 2019 07:24:38.975,29 Oct 2019 07:35:22.168,643.193,,
566,29 Oct 2019 09:01:19.675,29 Oct 2019 09:10:42.138,562.463,,
567,30 Oct 2019 00:05:22.453,30 Oct 2019 00:13:48.323,505.87,,
568,30 Oct 2019 01:40:04.052,30 Oct 2019 01:50:46.221,642.169,,
569,30 Oct 2019 03:16:54.008,30 Oct 2019 03:27:10.590,616.582,,
570,30 Oct 2019 04:54:08.253,30 Oct 2019 05:04:07.389,599.136,,
571,30 Oct 2019 06:30:45.824,30 Oct 2019 06:41:21.948,636.124,,
572,30 Oct 2019 08:07:13.057,30 Oct 2019 08:17:26.200,613.143,,
573,30 Oct 2019 09:45:54.175,30 Oct 2019 09:49:37.780,223.605,,
574,30 Oct 2019 23:13:01.658,30 Oct 2019 23:19:03.032,361.374,,
575,31 Oct 2019 00:46:22.502,31 Oct 2019 00:56:50.343,627.841,,
576,31 Oct 2019 02:22:44.488,31 Oct 2019 02:33:14.668,630.18,,
577,31 Oct 2019 04:00:01.100,31 Oct 2019 04:09:58.278,597.177,,
578,31 Oct 2019 05:36:51.296,31 Oct 2019 05:47:14.707,623.411,,
579,31 Oct 2019 07:13:14.747,31 Oct 2019 07:23:52.018,637.271,,
580,31 Oct 2019 08:50:32.044,31 Oct 2019 08:57:58.581,446.537,,
581,31 Oct 2019 23:52:56.788,1 Nov 2019 00:02:48.583,591.795,,
582,1 Nov 2019 01:28:40.395,1 Nov 2019 01:39:21.062,640.667,,
583,1 Nov 2019 03:05:50.521,1 Nov 2019 03:15:53.275,602.754,,
584,1 Nov 2019 04:42:53.676,1 Nov 2019 04:53:03.632,609.956,,
585,1 Nov 2019 06:19:20.483,1 Nov 2019 06:30:03.936,643.453,,
586,1 Nov 2019 07:56:04.705,1 Nov 2019 08:05:14.943,550.238,,
587,1 Nov 2019 22:59:52.551,1 Nov 2019 23:08:35.293,522.742,,
588,2 Nov 2019 00:34:44.862,2 Nov 2019 00:45:27.852,642.99,,
589,2 Nov 2019 02:11:38.690,2 Nov 2019 02:21:52.855,614.165,,
590,2 Nov 2019 03:48:51.797,2 Nov 2019 03:58:51.888,600.091,,
591,2 Nov 2019 05:25:27.398,2 Nov 2019 05:36:05.236,637.838,,
592,2 Nov 2019 07:01:56.081,2 Nov 2019 07:12:02.765,606.684,,
593,2 Nov 2019 08:41:13.798,2 Nov 2019 08:43:32.344,138.546,,
594,2 Nov 2019 22:07:22.734,2 Nov 2019 22:13:57.379,394.644,,
595,2 Nov 2019 23:41:00.973,2 Nov 2019 23:51:32.645,631.672,,
596,3 Nov 2019 01:17:28.543,3 Nov 2019 01:27:56.402,627.859,,
597,3 Nov 2019 02:54:45.370,3 Nov 2019 03:04:42.218,596.849,,
598,3 Nov 2019 04:31:33.260,3 Nov 2019 04:41:58.981,625.721,,
599,3 Nov 2019 06:07:56.745,3 Nov 2019 06:18:31.358,634.613,,
600,3 Nov 2019 07:45:22.721,3 Nov 2019 07:52:23.811,421.09,,
601,3 Nov 2019 22:47:32.220,3 Nov 2019 22:57:32.233,600.013,,
602,4 Nov 2019 00:23:23.277,4 Nov 2019 00:34:02.553,639.276,,
603,4 Nov 2019 02:00:35.241,4 Nov 2019 02:10:36.466,601.226,,
604,4 Nov 2019 03:37:36.270,4 Nov 2019 03:47:48.342,612.072,,
605,4 Nov 2019 05:14:02.034,4 Nov 2019 05:24:45.421,643.386,,
606,4 Nov 2019 06:50:50.325,4 Nov 2019 06:59:46.939,536.614,,
607,4 Nov 2019 21:54:23.703,4 Nov 2019 22:03:21.527,537.824,,
608,4 Nov 2019 23:29:26.042,4 Nov 2019 23:40:09.448,643.406,,
609,5 Nov 2019 01:06:23.413,5 Nov 2019 01:16:35.292,611.88,,
610,5 Nov 2019 02:43:35.171,5 Nov 2019 02:53:36.508,601.338,,
611,5 Nov 2019 04:20:08.928,5 Nov 2019 04:30:48.330,639.402,,
612,5 Nov 2019 05:56:39.414,5 Nov 2019 06:06:38.774,599.36,,
613,5 Nov 2019 21:01:46.213,5 Nov 2019 21:08:49.609,423.396,,
614,5 Nov 2019 22:35:39.921,5 Nov 2019 22:46:14.786,634.865,,
615,6 Nov 2019 00:12:12.739,6 Nov 2019 00:22:38.256,625.518,,
616,6 Nov 2019 01:49:29.487,6 Nov 2019 01:59:26.339,596.852,,
617,6 Nov 2019 03:26:15.108,6 Nov 2019 03:36:43.158,628.049,,
618,6 Nov 2019 05:02:38.899,6 Nov 2019 05:13:10.276,631.378,,
619,6 Nov 2019 06:40:15.079,6 Nov 2019 06:46:47.125,392.046,,
620,6 Nov 2019 20:10:34.038,6 Nov 2019 20:13:02.040,148.002,,
621,6 Nov 2019 21:42:08.271,6 Nov 2019 21:52:15.547,607.276,,
622,6 Nov 2019 23:18:06.392,6 Nov 2019 23:28:44.085,637.692,,
623,7 Nov 2019 00:55:19.862,7 Nov 2019 01:05:19.844,599.983,,
624,7 Nov 2019 02:32:18.707,7 Nov 2019 02:42:33.057,614.35,,
625,7 Nov 2019 04:08:43.639,7 Nov 2019 04:19:26.583,642.943,,
626,7 Nov 2019 05:45:36.607,7 Nov 2019 05:54:18.019,521.412,,
627,7 Nov 2019 20:48:55.766,7 Nov 2019 20:58:07.110,551.343,,
628,7 Nov 2019 22:24:07.557,7 Nov 2019 22:34:51.005,643.448,,
629,8 Nov 2019 00:01:08.136,8 Nov 2019 00:11:17.901,609.765,,
630,8 Nov 2019 01:38:18.352,8 Nov 2019 01:48:21.223,602.871,,
631,8 Nov 2019 03:14:50.419,8 Nov 2019 03:25:31.193,640.774,,
632,8 Nov 2019 04:51:23.085,8 Nov 2019 05:01:14.160,591.075,,
633,8 Nov 2019 19:56:11.582,8 Nov 2019 20:03:40.182,448.601,,
634,8 Nov 2019 21:30:19.300,8 Nov 2019 21:40:56.777,637.477,,
635,8 Nov 2019 23:06:57.025,8 Nov 2019 23:17:20.223,623.197,,
636,9 Nov 2019 00:44:13.426,9 Nov 2019 00:54:10.610,597.184,,
637,9 Nov 2019 02:20:56.843,9 Nov 2019 02:31:27.204,630.361,,
638,9 Nov 2019 03:57:21.212,9 Nov 2019 04:07:48.715,627.503,,
639,9 Nov 2019 05:35:09.607,9 Nov 2019 05:41:08.011,358.403,,
640,9 Nov 2019 19:04:30.495,9 Nov 2019 19:08:19.812,229.317,,
641,9 Nov 2019 20:36:44.889,9 Nov 2019 20:46:58.559,613.67,,
642,9 Nov 2019 22:12:49.704,9 Nov 2019 22:23:25.663,635.959,,
643,9 Nov 2019 23:50:04.362,10 Nov 2019 00:00:03.397,599.035,,
644,10 Nov 2019 01:27:00.969,10 Nov 2019 01:37:17.735,616.766,,
645,10 Nov 2019 03:03:25.286,10 Nov 2019 03:14:07.363,642.077,,
646,10 Nov 2019 04:40:23.632,10 Nov 2019 04:48:48.047,504.415,,
647,10 Nov 2019 19:43:28.638,10 Nov 2019 19:52:52.114,563.476,,
648,10 Nov 2019 21:18:49.360,10 Nov 2019 21:29:32.508,643.148,,
649,10 Nov 2019 22:55:52.808,10 Nov 2019 23:06:00.652,607.844,,
650,11 Nov 2019 00:33:01.336,11 Nov 2019 00:43:05.994,604.658,,
651,11 Nov 2019 02:09:31.863,11 Nov 2019 02:20:13.780,641.916,,
652,11 Nov 2019 03:46:07.118,11 Nov 2019 03:55:48.847,581.729,,
653,11 Nov 2019 18:50:38.490,11 Nov 2019 18:58:29.401,470.911,,
654,11 Nov 2019 20:24:59.059,11 Nov 2019 20:35:38.624,639.564,,
655,11 Nov 2019 22:01:41.370,11 Nov 2019 22:12:02.285,620.915,,
656,11 Nov 2019 23:38:57.160,11 Nov 2019 23:48:54.996,597.835,,
657,12 Nov 2019 01:15:38.454,12 Nov 2019 01:26:11.066,632.612,,
658,12 Nov 2019 02:52:03.701,12 Nov 2019 03:02:26.624,622.922,,
659,12 Nov 2019 04:30:07.074,12 Nov 2019 04:35:25.639,318.566,,
660,12 Nov 2019 17:58:39.574,12 Nov 2019 18:03:25.118,285.545,,
661,12 Nov 2019 19:31:22.006,12 Nov 2019 19:41:41.280,619.274,,
662,12 Nov 2019 21:07:33.169,12 Nov 2019 21:18:07.270,634.102,,
663,12 Nov 2019 22:44:48.707,12 Nov 2019 22:54:47.091,598.384,,
664,13 Nov 2019 00:21:43.048,13 Nov 2019 00:32:02.330,619.282,,
665,13 Nov 2019 01:58:06.978,13 Nov 2019 02:08:47.730,640.752,,
666,13 Nov 2019 03:35:11.515,13 Nov 2019 03:43:16.872,485.356,,
667,13 Nov 2019 18:38:02.221,13 Nov 2019 18:47:36.588,574.367,,
668,13 Nov 2019 20:13:31.405,13 Nov 2019 20:24:13.967,642.562,,
669,13 Nov 2019 21:50:37.409,13 Nov 2019 22:00:43.541,606.132,,
670,13 Nov 2019 23:27:44.093,13 Nov 2019 23:37:50.775,606.681,,
671,14 Nov 2019 01:04:13.264,14 Nov 2019 01:14:56.038,642.774,,
672,14 Nov 2019 02:40:51.543,14 Nov 2019 02:50:22.761,571.218,,
673,14 Nov 2019 17:45:06.672,14 Nov 2019 17:53:17.505,490.834,,
674,14 Nov 2019 19:19:39.158,14 Nov 2019 19:30:20.321,641.163,,
675,14 Nov 2019 20:56:25.736,14 Nov 2019 21:06:44.443,618.707,,
676,14 Nov 2019 22:33:40.686,14 Nov 2019 22:43:39.469,598.783,,
677,15 Nov 2019 00:10:19.942,15 Nov 2019 00:20:54.702,634.76,,
678,15 Nov 2019 01:46:46.366,15 Nov 2019 01:57:03.950,617.585,,
679,15 Nov 2019 03:25:08.879,15 Nov 2019 03:29:38.560,269.681,,
680,15 Nov 2019 16:52:54.632,15 Nov 2019 16:58:24.576,329.944,,
681,15 Nov 2019 18:25:59.566,15 Nov 2019 18:36:23.736,624.17,,
682,15 Nov 2019 20:02:16.756,15 Nov 2019 20:12:48.903,632.147,,
683,15 Nov 2019 21:39:32.874,15 Nov 2019 21:49:30.902,598.028,,
684,15 Nov 2019 23:16:24.944,15 Nov 2019 23:26:46.801,621.858,,
685,16 Nov 2019 00:52:48.720,16 Nov 2019 01:03:27.636,638.916,,
686,16 Nov 2019 02:30:00.382,16 Nov 2019 02:37:44.311,463.929,,
687,16 Nov 2019 17:32:36.435,16 Nov 2019 17:42:20.587,584.152,,
688,16 Nov 2019 19:08:13.659,16 Nov 2019 19:18:55.376,641.717,,
689,16 Nov 2019 20:45:21.906,16 Nov 2019 20:55:26.540,604.635,,
690,16 Nov 2019 22:22:26.637,16 Nov 2019 22:32:35.522,608.885,,
691,16 Nov 2019 23:58:54.612,17 Nov 2019 00:09:37.939,643.327,,
692,17 Nov 2019 01:35:36.392,17 Nov 2019 01:44:55.834,559.442,,
693,17 Nov 2019 16:39:35.933,17 Nov 2019 16:48:04.651,508.718,,
694,17 Nov 2019 18:14:19.551,17 Nov 2019 18:25:01.880,642.329,,
695,17 Nov 2019 19:51:10.096,17 Nov 2019 20:01:26.673,616.577,,
696,17 Nov 2019 21:28:23.979,17 Nov 2019 21:38:23.988,600.009,,
697,17 Nov 2019 23:05:01.311,17 Nov 2019 23:15:38.074,636.764,,
698,18 Nov 2019 00:41:29.231,18 Nov 2019 00:51:40.649,611.418,,
699,18 Nov 2019 02:20:18.267,18 Nov 2019 02:23:43.493,205.226,,
700,18 Nov 2019 15:47:13.430,18 Nov 2019 15:53:20.406,366.977,,
701,18 Nov 2019 17:20:37.537,18 Nov 2019 17:31:05.930,628.393,,
702,18 Nov 2019 18:57:00.422,18 Nov 2019 19:07:30.553,630.132,,
703,18 Nov 2019 20:34:16.852,18 Nov 2019 20:44:14.804,597.952,,
704,18 Nov 2019 22:11:06.661,18 Nov 2019 22:21:31.108,624.446,,
705,18 Nov 2019 23:47:30.519,18 Nov 2019 23:58:07.045,636.526,,
706,19 Nov 2019 01:24:50.431,19 Nov 2019 01:32:10.152,439.721,,
707,19 Nov 2019 16:27:11.217,19 Nov 2019 16:37:04.154,592.937,,
708,19 Nov 2019 18:02:56.094,19 Nov 2019 18:13:36.738,640.644,,
709,19 Nov 2019 19:40:06.281,19 Nov 2019 19:50:09.634,603.354,,
710,19 Nov 2019 21:17:08.954,19 Nov 2019 21:27:20.206,611.251,,
711,19 Nov 2019 22:53:35.922,19 Nov 2019 23:04:19.445,643.523,,
712,20 Nov 2019 00:30:21.723,20 Nov 2019 00:39:27.978,546.256,,
713,20 Nov 2019 15:34:06.135,20 Nov 2019 15:42:50.981,524.847,,
714,20 Nov 2019 17:09:00.217,20 Nov 2019 17:19:43.311,643.094,,
715,20 Nov 2019 18:45:54.417,20 Nov 2019 18:56:08.964,614.547,,
716,20 Nov 2019 20:23:07.038,20 Nov 2019 20:33:08.515,601.477,,
717,20 Nov 2019 21:59:42.557,20 Nov 2019 22:10:21.141,638.584,,
718,20 Nov 2019 23:36:12.302,20 Nov 2019 23:46:16.672,604.37,,
719,21 Nov 2019 01:15:48.857,21 Nov 2019 01:17:26.782,97.925,,
720,21 Nov 2019 14:41:34.874,21 Nov 2019 14:48:13.677,398.803,,
721,21 Nov 2019 16:15:15.869,21 Nov 2019 16:25:47.897,632.028,,
722,21 Nov 2019 17:51:44.161,21 Nov 2019 18:02:12.216,628.055,,
723,21 Nov 2019 19:29:00.622,21 Nov 2019 19:38:58.768,598.145,,
724,21 Nov 2019 21:05:48.196,21 Nov 2019 21:16:15.211,627.015,,
725,21 Nov 2019 22:42:12.384,21 Nov 2019 22:52:45.917,633.532,,
726,22 Nov 2019 00:19:41.916,22 Nov 2019 00:26:34.088,412.172,,
727,22 Nov 2019 15:21:46.503,22 Nov 2019 15:31:47.327,600.823,,
728,22 Nov 2019 16:57:38.683,22 Nov 2019 17:08:18.039,639.356,,
729,22 Nov 2019 18:34:50.513,22 Nov 2019 18:44:52.798,602.285,,
730,22 Nov 2019 20:11:51.059,22 Nov 2019 20:22:04.787,613.728,,
731,22 Nov 2019 21:48:17.205,22 Nov 2019 21:59:00.518,643.313,,
732,22 Nov 2019 23:25:07.590,22 Nov 2019 23:33:59.118,531.528,,
733,23 Nov 2019 14:28:37.150,23 Nov 2019 14:37:36.598,539.448,,
734,23 Nov 2019 16:03:41.127,23 Nov 2019 16:14:24.613,643.486,,
735,23 Nov 2019 17:40:38.690,23 Nov 2019 17:50:51.313,612.624,,
736,23 Nov 2019 19:17:49.874,23 Nov 2019 19:27:53.027,603.153,,
737,23 Nov 2019 20:54:23.702,23 Nov 2019 21:05:03.881,640.179,,
738,23 Nov 2019 22:30:55.611,23 Nov 2019 22:40:51.980,596.369,,
739,24 Nov 2019 13:35:58.339,24 Nov 2019 13:43:05.036,426.697,,
740,24 Nov 2019 15:09:54.543,24 Nov 2019 15:20:29.639,635.096,,
741,24 Nov 2019 16:46:27.943,24 Nov 2019 16:56:53.888,625.944,,
742,24 Nov 2019 18:23:44.190,24 Nov 2019 18:33:42.770,598.58,,
743,24 Nov 2019 20:00:29.573,24 Nov 2019 20:10:59.080,629.506,,
744,24 Nov 2019 21:36:54.329,24 Nov 2019 21:47:24.225,629.896,,
745,24 Nov 2019 23:14:35.207,24 Nov 2019 23:20:55.740,380.533,,
746,25 Nov 2019 12:44:40.434,25 Nov 2019 12:47:22.121,161.687,,
747,25 Nov 2019 14:16:22.265,25 Nov 2019 14:26:30.154,607.889,,
748,25 Nov 2019 15:52:21.417,25 Nov 2019 16:02:59.298,637.881,,
749,25 Nov 2019 17:29:34.605,25 Nov 2019 17:39:36.025,601.42,,
750,25 Nov 2019 19:06:32.962,25 Nov 2019 19:16:49.229,616.267,,
751,25 Nov 2019 20:42:58.466,25 Nov 2019 20:53:41.139,642.673,,
752,25 Nov 2019 22:19:54.068,25 Nov 2019 22:28:29.158,515.09,,
753,26 Nov 2019 13:23:08.905,26 Nov 2019 13:32:21.590,552.685,,
754,26 Nov 2019 14:58:22.266,26 Nov 2019 15:09:05.801,643.535,,
755,26 Nov 2019 16:35:22.911,26 Nov 2019 16:45:33.707,610.796,,
756,26 Nov 2019 18:12:32.495,26 Nov 2019 18:22:37.495,605.001,,
757,26 Nov 2019 19:49:04.760,26 Nov 2019 19:59:46.268,641.508,,
758,26 Nov 2019 21:25:39.187,26 Nov 2019 21:35:26.538,587.35,,
759,27 Nov 2019 12:30:23.421,27 Nov 2019 12:37:54.889,451.468,,
760,27 Nov 2019 14:04:33.540,27 Nov 2019 14:15:11.191,637.65,,
761,27 Nov 2019 15:41:11.763,27 Nov 2019 15:51:35.570,623.807,,
762,27 Nov 2019 17:18:27.562,27 Nov 2019 17:28:26.793,599.231,,
763,27 Nov 2019 18:55:10.807,27 Nov 2019 19:05:42.693,631.886,,
764,27 Nov 2019 20:31:36.378,27 Nov 2019 20:42:01.951,625.573,,
765,27 Nov 2019 22:09:30.884,27 Nov 2019 22:15:14.526,343.642,,
766,28 Nov 2019 11:38:38.794,28 Nov 2019 11:42:36.893,238.098,,
767,28 Nov 2019 13:10:58.476,28 Nov 2019 13:21:12.660,614.184,,
768,28 Nov 2019 14:47:04.286,28 Nov 2019 14:57:40.521,636.235,,
769,28 Nov 2019 16:24:18.562,28 Nov 2019 16:34:19.307,600.745,,
770,28 Nov 2019 18:01:14.678,28 Nov 2019 18:11:33.521,618.843,,
771,28 Nov 2019 19:37:39.735,28 Nov 2019 19:48:21.288,641.554,,
772,28 Nov 2019 21:14:41.247,28 Nov 2019 21:22:58.007,496.76,,
773,29 Nov 2019 12:17:41.336,29 Nov 2019 12:27:06.050,564.715,,
774,29 Nov 2019 13:53:03.629,29 Nov 2019 14:03:46.887,643.258,,
775,29 Nov 2019 15:30:07.067,29 Nov 2019 15:40:16.142,609.075,,
776,29 Nov 2019 17:07:14.916,29 Nov 2019 17:17:21.902,606.986,,
777,29 Nov 2019 18:43:45.751,29 Nov 2019 18:54:28.281,642.53,,
778,29 Nov 2019 20:20:23.071,29 Nov 2019 20:30:00.306,577.235,,
779,30 Nov 2019 11:24:49.871,30 Nov 2019 11:32:43.514,473.644,,
780,30 Nov 2019 12:59:12.850,30 Nov 2019 13:09:52.574,639.724,,
781,30 Nov 2019 14:35:55.623,30 Nov 2019 14:46:17.266,621.643,,
782,30 Nov 2019 16:13:10.746,30 Nov 2019 16:23:10.818,600.072,,
783,30 Nov 2019 17:49:51.918,30 Nov 2019 18:00:26.041,634.123,,
784,30 Nov 2019 19:26:18.557,30 Nov 2019 19:36:39.079,620.523,,
785,30 Nov 2019 21:04:29.924,30 Nov 2019 21:09:29.454,299.529,,
786,1 Dec 2019 10:32:48.039,1 Dec 2019 10:37:40.930,292.891,,
787,1 Dec 2019 12:05:35.118,1 Dec 2019 12:15:54.895,619.777,,
788,1 Dec 2019 13:41:47.286,1 Dec 2019 13:52:21.711,634.425,,
789,1 Dec 2019 15:19:02.379,1 Dec 2019 15:29:02.628,600.248,,
790,1 Dec 2019 16:55:56.237,1 Dec 2019 17:06:17.637,621.4,,
791,1 Dec 2019 18:32:21.022,1 Dec 2019 18:43:00.965,639.943,,
792,1 Dec 2019 20:09:29.255,1 Dec 2019 20:17:25.546,476.291,,
793,2 Dec 2019 11:12:14.400,2 Dec 2019 11:21:50.034,575.633,,
794,2 Dec 2019 12:47:45.219,2 Dec 2019 12:58:27.893,642.674,,
795,2 Dec 2019 14:24:51.172,2 Dec 2019 14:34:58.627,607.455,,
796,2 Dec 2019 16:01:57.159,2 Dec 2019 16:12:06.227,609.068,,
797,2 Dec 2019 17:38:26.693,2 Dec 2019 17:49:09.919,643.226,,
798,2 Dec 2019 19:15:07.290,2 Dec 2019 19:24:33.259,565.968,,
799,3 Dec 2019 10:19:17.494,3 Dec 2019 10:27:31.138,493.643,,
800,3 Dec 2019 11:53:52.477,3 Dec 2019 12:04:33.801,641.324,,
801,3 Dec 2019 13:30:39.523,3 Dec 2019 13:40:58.990,619.468,,
802,3 Dec 2019 15:07:53.770,3 Dec 2019 15:17:54.847,601.077,,
803,3 Dec 2019 16:44:32.931,3 Dec 2019 16:55:09.105,636.173,,
804,3 Dec 2019 18:21:00.883,3 Dec 2019 18:31:15.597,614.714,,
805,3 Dec 2019 19:59:34.268,3 Dec 2019 20:03:38.602,244.334,,
806,4 Dec 2019 09:27:02.793,4 Dec 2019 09:32:39.654,336.861,,
807,4 Dec 2019 11:00:12.181,4 Dec 2019 11:10:36.888,624.707,,
808,4 Dec 2019 12:36:30.426,4 Dec 2019 12:47:02.887,632.461,,
809,4 Dec 2019 14:13:46.071,4 Dec 2019 14:23:45.990,599.92,,
810,4 Dec 2019 15:50:37.660,4 Dec 2019 16:01:01.568,623.907,,
811,4 Dec 2019 17:27:02.354,4 Dec 2019 17:37:40.162,637.808,,
812,4 Dec 2019 19:04:18.243,4 Dec 2019 19:11:51.652,453.409,,
813,5 Dec 2019 10:06:48.073,5 Dec 2019 10:16:33.606,585.532,,
814,5 Dec 2019 11:42:27.030,5 Dec 2019 11:53:08.837,641.807,,
815,5 Dec 2019 13:19:35.231,5 Dec 2019 13:29:41.167,605.936,,
816,5 Dec 2019 14:56:39.250,5 Dec 2019 15:06:50.465,611.214,,
817,5 Dec 2019 16:33:07.615,5 Dec 2019 16:43:51.184,643.569,,
818,5 Dec 2019 18:09:51.912,5 Dec 2019 18:19:05.374,553.462,,
819,6 Dec 2019 09:13:46.181,6 Dec 2019 09:22:17.914,511.733,,
820,6 Dec 2019 10:48:32.418,6 Dec 2019 10:59:14.912,642.494,,
821,6 Dec 2019 12:25:23.470,6 Dec 2019 12:35:40.747,617.277,,
822,6 Dec 2019 14:02:36.638,6 Dec 2019 14:12:38.863,602.225,,
823,6 Dec 2019 15:39:13.872,6 Dec 2019 15:49:51.882,638.01,,
824,6 Dec 2019 17:15:43.391,6 Dec 2019 17:25:51.511,608.12,,
825,6 Dec 2019 18:54:49.248,6 Dec 2019 18:57:36.658,167.41,,
826,7 Dec 2019 08:21:21.133,7 Dec 2019 08:27:35.029,373.897,,
827,7 Dec 2019 09:54:49.670,7 Dec 2019 10:05:18.672,629.002,,
828,7 Dec 2019 11:31:13.706,7 Dec 2019 11:41:44.067,630.361,,
829,7 Dec 2019 13:08:29.660,7 Dec 2019 13:18:29.399,599.74,,
830,7 Dec 2019 14:45:18.975,7 Dec 2019 14:55:45.318,626.343,,
831,7 Dec 2019 16:21:43.763,7 Dec 2019 16:32:18.886,635.123,,
832,7 Dec 2019 17:59:08.423,7 Dec 2019 18:06:16.131,427.708,,
833,8 Dec 2019 09:01:22.342,8 Dec 2019 09:11:16.820,594.479,,
834,8 Dec 2019 10:37:09.077,8 Dec 2019 10:47:49.742,640.666,,
835,8 Dec 2019 12:14:19.255,8 Dec 2019 12:24:23.771,604.516,,
836,8 Dec 2019 13:51:21.209,8 Dec 2019 14:01:34.616,613.408,,
837,8 Dec 2019 15:27:48.542,8 Dec 2019 15:38:32.073,643.531,,
838,8 Dec 2019 17:04:36.997,8 Dec 2019 17:13:36.620,539.623,,
839,9 Dec 2019 08:08:15.837,9 Dec 2019 08:17:03.977,528.14,,
840,9 Dec 2019 09:43:12.689,9 Dec 2019 09:53:55.927,643.238,,
841,9 Dec 2019 11:20:07.479,9 Dec 2019 11:30:22.562,615.084,,
842,9 Dec 2019 12:57:19.384,9 Dec 2019 13:07:22.880,603.496,,
843,9 Dec 2019 14:33:54.769,9 Dec 2019 14:44:34.387,639.618,,
844,9 Dec 2019 16:10:26.124,9 Dec 2019 16:20:26.820,600.697,,
845,10 Dec 2019 07:15:42.119,10 Dec 2019 07:22:28.034,405.915,,
846,10 Dec 2019 08:49:27.591,10 Dec 2019 09:00:00.286,632.695,,
847,10 Dec 2019 10:25:57.140,10 Dec 2019 10:36:25.275,628.135,,
848,10 Dec 2019 12:03:13.163,10 Dec 2019 12:13:12.865,599.702,,
849,10 Dec 2019 13:40:00.209,10 Dec 2019 13:50:28.890,628.681,,
850,10 Dec 2019 15:16:25.279,10 Dec 2019 15:26:57.148,631.869,,
851,10 Dec 2019 16:54:00.087,10 Dec 2019 17:00:38.746,398.659,,
852,11 Dec 2019 06:25:08.726,11 Dec 2019 06:26:01.332,52.606,,
853,11 Dec 2019 07:55:57.206,11 Dec 2019 08:05:59.733,602.528,,
854,11 Dec 2019 09:31:51.374,11 Dec 2019 09:42:30.634,639.261,,
855,11 Dec 2019 11:09:03.257,11 Dec 2019 11:19:06.460,603.202,,
856,11 Dec 2019 12:46:03.058,11 Dec 2019 12:56:18.686,615.628,,
857,11 Dec 2019 14:22:29.505,11 Dec 2019 14:33:12.596,643.091,,
858,11 Dec 2019 15:59:22.618,11 Dec 2019 16:08:06.962,524.344,,
859,12 Dec 2019 07:02:46.417,12 Dec 2019 07:11:49.428,543.012,,
860,12 Dec 2019 08:37:53.297,12 Dec 2019 08:48:36.873,643.576,,
861,12 Dec 2019 10:14:51.544,12 Dec 2019 10:25:04.454,612.91,,
862,12 Dec 2019 11:52:02.030,12 Dec 2019 12:02:06.907,604.876,,
863,12 Dec 2019 13:28:35.655,12 Dec 2019 13:39:16.624,640.969,,
864,12 Dec 2019 15:05:09.125,12 Dec 2019 15:15:01.524,592.4,,
865,13 Dec 2019 06:10:05.227,13 Dec 2019 06:17:19.260,434.033,,
866,13 Dec 2019 07:44:05.960,13 Dec 2019 07:54:41.759,635.799,,
867,13 Dec 2019 09:20:40.736,13 Dec 2019 09:31:06.534,625.798,,
868,13 Dec 2019 10:57:56.586,13 Dec 2019 11:07:56.398,599.812,,
869,13 Dec 2019 12:34:41.388,13 Dec 2019 12:45:12.287,630.899,,
870,13 Dec 2019 14:11:06.933,13 Dec 2019 14:21:34.952,628.018,,
871,13 Dec 2019 15:48:53.652,13 Dec 2019 15:54:59.107,365.455,,
872,14 Dec 2019 05:18:36.996,14 Dec 2019 05:21:45.725,188.729,,
873,14 Dec 2019 06:50:32.651,14 Dec 2019 07:00:42.390,609.739,,
874,14 Dec 2019 08:26:33.930,14 Dec 2019 08:37:11.539,637.61,,
875,14 Dec 2019 10:03:47.246,14 Dec 2019 10:13:49.244,601.998,,
876,14 Dec 2019 11:40:44.831,14 Dec 2019 11:51:02.676,617.845,,
877,14 Dec 2019 13:17:10.527,14 Dec 2019 13:27:52.777,642.25,,
878,14 Dec 2019 14:54:08.871,14 Dec 2019 15:02:36.359,507.488,,
879,15 Dec 2019 05:57:17.866,15 Dec 2019 06:06:34.359,556.493,,
880,15 Dec 2019 07:32:34.260,15 Dec 2019 07:43:17.790,643.53,,
881,15 Dec 2019 09:09:35.692,15 Dec 2019 09:19:46.450,610.758,,
882,15 Dec 2019 10:46:44.581,15 Dec 2019 10:56:50.940,606.36,,
883,15 Dec 2019 12:23:16.545,15 Dec 2019 12:33:58.607,642.063,,
884,15 Dec 2019 13:59:52.427,15 Dec 2019 14:09:35.618,583.192,,
885,16 Dec 2019 05:04:30.113,16 Dec 2019 05:12:09.086,458.974,,
886,16 Dec 2019 06:38:44.779,16 Dec 2019 06:49:23.128,638.35,,
887,16 Dec 2019 08:15:24.499,16 Dec 2019 08:25:47.870,623.371,,
888,16 Dec 2019 09:52:39.948,16 Dec 2019 10:02:40.014,600.067,,
889,16 Dec 2019 11:29:22.538,16 Dec 2019 11:39:55.525,632.987,,
890,16 Dec 2019 13:05:48.758,16 Dec 2019 13:16:12.309,623.551,,
891,16 Dec 2019 14:43:49.787,16 Dec 2019 14:49:16.605,326.818,,
892,17 Dec 2019 04:12:38.623,17 Dec 2019 04:16:57.184,258.561,,
893,17 Dec 2019 05:45:08.695,17 Dec 2019 05:55:24.822,616.127,,
894,17 Dec 2019 07:21:16.750,17 Dec 2019 07:31:52.489,635.74,,
895,17 Dec 2019 08:58:31.235,17 Dec 2019 09:08:32.154,600.919,,
896,17 Dec 2019 10:35:26.546,17 Dec 2019 10:45:46.606,620.06,,
897,17 Dec 2019 12:11:51.648,17 Dec 2019 12:22:32.612,640.964,,
898,17 Dec 2019 13:48:55.855,17 Dec 2019 13:57:04.743,488.888,,
899,18 Dec 2019 04:51:50.163,18 Dec 2019 05:01:18.845,568.682,,
900,18 Dec 2019 06:27:15.586,18 Dec 2019 06:37:58.691,643.106,,
901,18 Dec 2019 08:04:19.911,18 Dec 2019 08:14:28.563,608.651,,
902,18 Dec 2019 09:41:27.072,18 Dec 2019 09:51:35.000,607.928,,
903,18 Dec 2019 11:17:57.479,18 Dec 2019 11:28:40.337,642.858,,
904,18 Dec 2019 12:54:36.097,18 Dec 2019 13:04:09.096,572.999,,
905,19 Dec 2019 03:58:56.545,19 Dec 2019 04:06:57.786,481.242,,
906,19 Dec 2019 05:33:24.065,19 Dec 2019 05:44:04.424,640.359,,
907,19 Dec 2019 07:10:08.443,19 Dec 2019 07:20:29.312,620.869,,
908,19 Dec 2019 08:47:23.259,19 Dec 2019 08:57:23.729,600.471,,
909,19 Dec 2019 10:24:03.683,19 Dec 2019 10:34:38.607,634.924,,
910,19 Dec 2019 12:00:30.792,19 Dec 2019 12:10:49.229,618.437,,
911,19 Dec 2019 13:38:49.636,19 Dec 2019 13:43:30.134,280.497,,
912,20 Dec 2019 03:06:49.369,20 Dec 2019 03:11:59.954,310.585,,
913,20 Dec 2019 04:39:45.331,20 Dec 2019 04:50:07.076,621.745,,
914,20 Dec 2019 06:15:59.846,20 Dec 2019 06:26:33.505,633.659,,
915,20 Dec 2019 07:53:15.220,20 Dec 2019 08:03:15.201,599.981,,
916,20 Dec 2019 09:30:08.222,20 Dec 2019 09:40:30.476,622.254,,
917,20 Dec 2019 11:06:32.888,20 Dec 2019 11:17:12.124,639.236,,
918,20 Dec 2019 12:43:43.722,20 Dec 2019 12:51:32.022,468.299,,
919,21 Dec 2019 03:46:23.281,21 Dec 2019 03:56:02.950,579.669,,
920,21 Dec 2019 05:21:57.284,21 Dec 2019 05:32:39.617,642.334,,
921,21 Dec 2019 06:59:04.215,21 Dec 2019 07:09:10.833,606.618,,
922,21 Dec 2019 08:36:09.504,21 Dec 2019 08:46:19.104,609.6,,
923,21 Dec 2019 10:12:38.471,21 Dec 2019 10:23:21.835,643.364,,
924,21 Dec 2019 11:49:20.178,21 Dec 2019 11:58:41.954,561.776,,
925,22 Dec 2019 02:53:24.368,22 Dec 2019 03:01:45.544,501.175,,
926,22 Dec 2019 04:28:03.821,22 Dec 2019 04:38:45.678,641.857,,
927,22 Dec 2019 06:04:52.561,22 Dec 2019 06:15:10.888,618.326,,
928,22 Dec 2019 07:42:06.526,22 Dec 2019 07:52:07.559,601.034,,
929,22 Dec 2019 09:18:44.841,22 Dec 2019 09:29:21.544,636.704,,
930,22 Dec 2019 10:55:13.072,22 Dec 2019 11:05:25.713,612.641,,
931,22 Dec 2019 12:33:55.637,22 Dec 2019 12:37:37.313,221.676,,
932,23 Dec 2019 02:01:05.279,23 Dec 2019 02:06:58.041,352.762,,
933,23 Dec 2019 03:34:22.565,23 Dec 2019 03:44:49.188,626.623,,
934,23 Dec 2019 05:10:43.222,23 Dec 2019 05:21:14.618,631.396,,
935,23 Dec 2019 06:47:59.201,23 Dec 2019 06:57:58.411,599.21,,
936,23 Dec 2019 08:24:49.875,23 Dec 2019 08:35:14.296,624.421,,
937,23 Dec 2019 10:01:14.274,23 Dec 2019 10:11:51.315,637.041,,
938,23 Dec 2019 11:38:32.632,23 Dec 2019 11:45:58.077,445.446,,
939,24 Dec 2019 02:40:57.196,24 Dec 2019 02:50:46.716,589.519,,
940,24 Dec 2019 04:16:39.349,24 Dec 2019 04:27:20.589,641.241,,
941,24 Dec 2019 05:53:48.592,24 Dec 2019 06:03:53.274,604.681,,
942,24 Dec 2019 07:30:51.886,24 Dec 2019 07:41:03.249,611.363,,
943,24 Dec 2019 09:07:19.549,24 Dec 2019 09:18:03.108,643.559,,
944,24 Dec 2019 10:44:04.749,24 Dec 2019 10:53:14.161,549.412,,
945,25 Dec 2019 01:47:53.459,25 Dec 2019 01:56:32.516,519.057,,
946,25 Dec 2019 03:22:44.043,25 Dec 2019 03:33:26.907,642.863,,
947,25 Dec 2019 04:59:36.847,25 Dec 2019 05:09:52.618,615.771,,
